Airport_Type,Airport_Name,Country,Airport_Code,Longitude,Latitude,Country_Name
small_airport,Utirik Airport,MH,UTK,169.852005,11.222,Marshall Islands
small_airport,Ocean Reef Club Airport,US,OCA,-80.27480316,25.3253994,United States
small_airport,Pilot Station Airport,US,PQS,-162.899994,61.934601,United States
small_airport,Crested Butte Airpark,US,CSE,-106.928341,38.851918,United States
small_airport,LBJ Ranch Airport,US,JCY,-98.62249756,30.25180054,United States
small_airport,Metropolitan Airport,US,PMX,-72.31140137,42.22330093,United States
seaplane_base,Loring Seaplane Base,US,WLR,-131.6369934,55.60129929,United States
small_airport,Nunapitchuk Airport,US,NUP,-162.440454,60.905591,United States
seaplane_base,Port Alice Seaplane Base,US,PTC,-133.597,55.803,United States
small_airport,Icy Bay Airport,US,ICY,-141.6620026,59.96900177,United States
seaplane_base,Port Protection Seaplane Base,US,PPV,-133.6100006,56.3288002,United States
small_airport,Kalakaket Creek AS Airport,US,KKK,-156.8203926,64.4166257,United States
small_airport,Dunsmuir Muni-Mott Airport,US,MHS,-122.272003,41.263199,United States
small_airport,Chase Field Industrial Airport,US,NIR,-97.661917,28.362444,United States
small_airport,Grand Canyon Bar Ten Airstrip,US,GCT,-113.231159,36.258614,United States
seaplane_base,Ellamar Seaplane Base,US,ELW,-146.704038,60.893818,United States
small_airport,Lime Village Airport,US,LVD,-155.4400024,61.35910034,United States
small_airport,Hog River Airport,US,HGZ,-155.6690063,66.2161026,United States
small_airport,Ed-Air Airport,US,OTN,-87.49970245,38.85139847,United States
small_airport,Telida Airport,US,TLF,-153.2689972,63.39390182,United States
small_airport,Eagle Air Park,US,BZT,-95.57969666,28.98220062,United States
seaplane_base,Entrance Island Seaplane Base,US,HBH,-133.43848,57.412201,United States
seaplane_base,False Island Seaplane Base,US,FAK,-135.2129974,57.53219986,United States
small_airport,Blakely Island Airport,US,BYW,-122.8259964,48.57899857,United States
small_airport,Drift River Airport,US,DRF,-152.1620026,60.58890152,United States
small_airport,Rinkenberger Restricted Landing Area,US,BDF,-89.61569977,41.23089981,United States
small_airport,Roy Otten Memorial Airfield,US,VRS,-92.87519836,38.42779922,United States
seaplane_base,Golden Horn Lodge Seaplane Base,US,GDH,-158.875,59.74700165,United States
small_airport,Atmautluak Airport,US,ATT,-162.272995,60.866699,United States
small_airport,Livengood Camp Airport,US,LIV,-148.6534,65.467,United States
small_airport,Pedro Bay Airport,US,PDB,-154.1239929,59.78960037,United States
small_airport,Ouzinkie Airport,US,KOZ,-152.496715,57.925362,United States
small_airport,Tununak Airport,US,TNK,-165.2720032,60.57550049,United States
closed,Ben Bruce Memorial Airpark,US,EVA,-94.07350159,30.32099915,United States
seaplane_base,Hyder Seaplane Base,US,WHD,-130.009975,55.903324,United States
small_airport,Minto Al Wright Airport,US,MNT,-149.369995,65.1437,United States
seaplane_base,Tokeen Seaplane Base,US,TKI,-133.3269959,55.93709946,United States
medium_airport,Aleknagik / New Airport,US,WKK,-158.6179962,59.2826004,United States
seaplane_base,Ketchikan Harbor Seaplane Base,US,WFB,-131.677002,55.349899,United States
small_airport,Naknek Airport,US,NNK,-157.0200043,58.73289871,United States
seaplane_base,Lake Brooks Seaplane Base,US,BKF,-155.7769928,58.55479813,United States
small_airport,Southern Seaplane Airport,US,BCS,-90.02220154,29.86610031,United States
heliport,Catalina Air-Sea Terminal Heliport,US,SPQ,-118.2750015,33.74919891,United States
heliport,East 34th Street Heliport,US,TSS,-73.9720993,40.74259949,United States
seaplane_base,New York Skyports Inc Seaplane Base,US,QNY,-73.9729,40.734001,United States
small_airport,Earl Henry Airport,US,BWL,-97.31700134,36.79589844,United States
seaplane_base,Yes Bay Lodge Seaplane Base,US,WYB,-131.8009949,55.91630173,United States
small_airport,Center Island Airport,US,CWS,-122.8320007,48.49010086,United States
small_airport,Tatitlek Airport,US,TEK,-146.690297,60.871449,United States
small_airport,Pine Island Airport,US,DUF,-75.78849792,36.25350189,United States
small_airport,Stuart Island Airpark,US,SSW,-123.1760025,48.67290115,United States
small_airport,Fort Bragg Airport,US,FOB,-123.7959976,39.47430038,United States
seaplane_base,Port of Poulsbo Marina Moorage Seaplane Base,US,PUL,-122.6470032,47.73400116,United States
heliport,Century City Heliport,US,CCD,-118.4179993,34.06079865,United States
seaplane_base,Meyers Chuck Seaplane Base,US,WMK,-132.2550049,55.73960114,United States
small_airport,Maxson Airfield,US,AXB,-75.90034,44.312002,United States
small_airport,Reese Airpark,US,REE,-102.0370026,33.59030151,United States
small_airport,Waldron Airstrip,US,WDN,-123.017998,48.7118,United States
seaplane_base,Whale Pass Seaplane Float Harbor Facility,US,WWP,-133.121994,56.116299,United States
small_airport,Chuathbaluk Airport,US,CHU,-159.216003,61.579102,United States
small_airport,Ugashik Airport,US,UGS,-157.3990021,57.5279007,United States
small_airport,Marlboro Airport,US,MXG,-71.509002,42.343201,United States
seaplane_base,Philadelphia Seaplane Base,US,PSQ,-75.29959869,39.85900116,United States
small_airport,Levelock Airport,US,KLL,-156.8589935,59.12810135,United States
seaplane_base,Saginaw Seaplane Base,US,SGW,-134.1580048,56.88629913,United States
small_airport,Tuntutuliak Airport,US,WTL,-162.6670074,60.33530045,United States
small_airport,Twin Hills Airport,US,TWA,-160.272995,59.07559967,United States
small_airport,Chignik Lake Airport,US,KCQ,-158.7749939,56.25500107,United States
small_airport,Adado Airport,SO,AAD,46.6375,6.095802,Somalia
small_airport,Atkamba Airport,PG,ABP,141.0952778,-6.065555556,Papua New Guinea
closed,Abau Airport,PG,ABW,148.7389,-10.1956,Papua New Guinea
heliport,Andorra la Vella Heliport,AD,ALV,1.533551,42.511174,Andorra
small_airport,Andakombe Airport,PG,ADC,145.7447222,-7.137222222,Papua New Guinea
small_airport,El Daein Airport,SD,ADV,26.1186,11.4023,Sudan
seaplane_base,Jebel Ali Seaplane Base,AE,DJH,55.023796,24.988967,United Arab Emirates
small_airport,Adareil Airport,SD,AEE,32.95944444,10.05361111,Sudan
heliport,Algeciras Heliport,ES,AEI,-5.441118,36.12888,Spain
small_airport,Aseki Airport,PG,AEK,146.1938667,-7.350804856,Papua New Guinea
small_airport,Ar Horqin Airport,CN,AEQ,120.15958,43.87042,China
small_airport,Orūzgān Airport,AF,URZ,66.63089752,32.90299988,Afghanistan
small_airport,Salerno Airport,AF,OLR,69.9561,33.3638,Afghanistan
seaplane_base,Kondavattavana Tank Seaplane Base,LK,AFK,81.644,7.284,Sri Lanka
small_airport,Afore Airstrip,PG,AFR,148.3908333,-9.142222222,Papua New Guinea
small_airport,Afutara Aerodrome,SB,AFT,160.9486111,-9.191388889,Solomon Islands
small_airport,Ulawa Airport,SB,RNA,161.9795465,-9.860543583,Solomon Islands
small_airport,Uru Harbour Airport,SB,ATD,161.011002,-8.87333,Solomon Islands
small_airport,Barakoma Airport,SB,VEV,156.7059937,-7.912779808,Solomon Islands
small_airport,Geva Airport,SB,GEF,156.5970001,-7.575829983,Solomon Islands
small_airport,Angoram Airport,PG,AGG,144.0738889,-4.055833333,Papua New Guinea
small_airport,Gwaunaru'u Airport,SB,AKS,160.682007,-8.70257,Solomon Islands
small_airport,Bellona/Anua Airport,SB,BNY,159.7983333,-11.30222222,Solomon Islands
small_airport,Choiseul Bay Airport,SB,CHY,156.396111,-6.711944,Solomon Islands
small_airport,Ballalae Airport,SB,BAS,155.886656,-6.990745,Solomon Islands
small_airport,Fera/Maringe Airport,SB,FRE,159.576996,-8.1075,Solomon Islands
medium_airport,Honiara International Airport,SB,HIR,160.0549927,-9.42800045,Solomon Islands
small_airport,Babanakira Airport,SB,MBU,159.8390045,-9.74750042,Solomon Islands
small_airport,Avu Avu Airport,SB,AVU,160.4105556,-9.868333333,Solomon Islands
small_airport,Ngorangora Airport,SB,IRA,161.897995,-10.44970036,Solomon Islands
small_airport,Santa Cruz/Graciosa Bay/Luova Airport,SB,SCZ,165.7949982,-10.72029972,Solomon Islands
medium_airport,Munda Airport,SB,MUA,157.2630005,-8.327969551,Solomon Islands
small_airport,Nusatupe Airport,SB,GZO,156.8639984,-8.097780228,Solomon Islands
small_airport,Mono Airport,SB,MNY,155.5650024,-7.416940212,Solomon Islands
small_airport,Parasi Airport,SB,PRS,161.4250031,-9.641670227,Solomon Islands
closed,Ontong Java Atoll Airstrip,SB,OTV,159.527778,-5.515,Solomon Islands
small_airport,Rennell/Tingoa Airport,SB,RNL,160.0630035,-11.53390026,Solomon Islands
small_airport,Sege Airport,SB,EGM,157.8760071,-8.578889847,Solomon Islands
small_airport,Santa Ana Airport,SB,NNB,162.454108,-10.847994,Solomon Islands
small_airport,Marau Airport,SB,RUS,160.8249969,-9.86166954,Solomon Islands
small_airport,Suavanao Airport,SB,VAO,158.7310028,-7.585559845,Solomon Islands
small_airport,Yandina Airport,SB,XYA,159.21841,-9.092816,Solomon Islands
small_airport,Kagua Airport,PG,AGK,143.8536111,-6.396388889,Papua New Guinea
small_airport,Kaghau Airport,SB,KGE,157.585,-7.3305,Solomon Islands
small_airport,Kukudu Airport,SB,KUE,156.94783,-8.0262,Solomon Islands
small_airport,Kwailabesi Airport,SB,KWS,160.775127,-8.360508,Solomon Islands
small_airport,Wanigela Airport,PG,AGL,149.1555556,-9.3375,Papua New Guinea
small_airport,Nana Airport,SB,NAZ,162.2049,-10.6758,Solomon Islands
small_airport,Ringi Cove Airport,SB,RIN,157.1430054,-8.126390457,Solomon Islands
small_airport,Ramata Airport,SB,RBV,157.6430054,-8.168060303,Solomon Islands
heliport,Tulaghi Heliport,SB,TLG,160.1491667,-9.108,Solomon Islands
small_airport,Argyle Downs Airport,AU,AGY,128.9245,-16.514,Australia
medium_airport,Hongyuan Airport,CN,AHJ,102.35224,32.53154,China
closed,Amchitka Army Airfield,US,AHT,179.2591667,51.37777778,United States
small_airport,Ambatolhy Airport,MG,AHY,45.535,-20.01583333,Madagascar
small_airport,Aiome Airport,PG,AIE,144.7307003,-5.145699978,Papua New Guinea
small_airport,Aiambak Airport,PG,AIH,141.2675,-7.342777778,Papua New Guinea
small_airport,Ailinglaplap Airok Airport,MH,AIC,168.8257,7.279422,Marshall Islands
small_airport,Chena Hot Springs Airport,US,CEX,-146.0469971,65.05180359,United States
small_airport,Solomon State Field,US,SOL,-164.4457,64.5605,United States
small_airport,Herendeen Bay Airport,US,HED,-160.8990021,55.80139923,United States
small_airport,Taylor Airport,US,TWE,-164.798996,65.6792984,United States
seaplane_base,Tikchik Lodge Seaplane Base,US,KTH,-158.477005,59.96319962,United States
seaplane_base,Naukati Bay Seaplane Base,US,NKI,-133.227994,55.849602,United States
small_airport,Lonely Air Station,US,LNI,-153.2420044,70.91069794,United States
small_airport,Candle 2 Airport,US,CDL,-161.9259949,65.90769959,United States
seaplane_base,Amook Bay Seaplane Base,US,AOS,-153.8150024,57.4715004,United States
small_airport,Bartletts Airport,US,BSZ,-157.352005,58.21620178,United States
small_airport,Boswell Bay Airport,US,BSW,-146.1459961,60.42309952,United States
small_airport,Zakuoma Airport,TD,AKM,19.81722222,10.89027778,Chad
small_airport,Sharpe Field,US,TGE,-85.77559662,32.4919014,United States
seaplane_base,Alitak Seaplane Base,US,ALZ,-154.2480011,56.8995018,United States
small_airport,Mar de Cortés International Airport,MX,PPE,-113.305177,31.351987,Mexico
small_airport,Alto Molocue Airport,MZ,AME,37.68138889,-15.61027778,Mozambique
small_airport,Ama Airport,PG,AMF,141.67,-4.101111111,Papua New Guinea
small_airport,Amanab Airport,PG,AMU,141.2143333,-3.586,Papua New Guinea
small_airport,Ambatomainty Airport,MG,AMY,45.62388889,-17.68666667,Madagascar
closed,Anuha Island Resort Airport,SB,ANH,160.225,-9.001388889,Solomon Islands
medium_airport,Nauru International Airport,NR,INU,166.919006,-0.547458,Nauru
small_airport,Angus Downs Airport,AU,ANZ,132.2748,-25.0325,Australia
small_airport,Andulo Airport,AO,ANL,16.71089935,-11.47229958,Angola
small_airport,Cangamba Airport,AO,CNZ,19.861099,-13.7106,Angola
small_airport,Dirico Airport,AO,DRC,20.76806068,-17.98192406,Angola
small_airport,Lumbala Airport,AO,GGC,22.5868206,-12.63987732,Angola
small_airport,Jamba Airport,AO,JMB,16.07014847,-14.6981926,Angola
small_airport,Capanda Airport,AO,KNP,15.4553194,-9.769370079,Angola
small_airport,Ndalatandos Airport,AO,NDF,14.97724247,-9.275188446,Angola
closed,Aroa Airport,PG,AOA,146.8,-9.0254,Papua New Guinea
small_airport,Annanberg Airport,PG,AOB,144.6358333,-4.904166667,Papua New Guinea
small_airport,Abou-Deïa Airport,TD,AOD,19.2874,11.4773,Chad
small_airport,Asapa Airport,PG,APP,148.1036111,-8.979166667,Papua New Guinea
small_airport,April River Airport,PG,APR,142.5401389,-4.676666667,Papua New Guinea
small_airport,Troll Airfield,AQ,QET,2.455581,-71.95559,Antarctica
small_airport,Girdwood Airport,US,AQY,-149.126007,60.966099,United States
small_airport,Bragado Airport,AR,QRF,-60.4803,-35.144,Argentina
small_airport,Caleta Olivia Airport,AR,CVI,-67.51860046,-46.43180084,Argentina
small_airport,Charata Airport,AR,CNT,-61.2103,-27.2164,Argentina
small_airport,General Villegas Airport,AR,VGS,-63,-35,Argentina
small_airport,Los Menucos Airport,AR,LMD,-68.074699,-40.817699,Argentina
closed,Saenz Peña Airport,AR,SZQ,-60.44829941,-26.81579971,Argentina
small_airport,Valcheta Airport,AR,VCF,-66.15000153,-40.70000076,Argentina
small_airport,Sunchales Aeroclub Airport,AR,NCJ,-61.5283,-30.9575,Argentina
small_airport,Carmen De Patagones Airport,AR,CPG,-62.9803,-40.7781,Argentina
small_airport,Termal Airport,AR,PRQ,-60.492222,-26.753611,Argentina
small_airport,Colonia Sarmiento Airport,AR,OLN,-68.999841,-45.582371,Argentina
small_airport,Aragip Airport,PG,ARP,149.4833333,-9.883333333,Papua New Guinea
closed,Asbury Park Neptune Air Terminal,US,ARX,-74.09083333,40.21930556,United States
small_airport,Tau Airport,AS,TAV,-169.5110016,-14.22920036,American Samoa
small_airport,Asirim Airport,PG,ASZ,150.3686111,-6.009722222,Papua New Guinea
small_airport,Namatanai Airport,PG,ATN,152.438,-3.6695,Papua New Guinea
small_airport,Aitape Airport,PG,ATP,142.3468056,-3.143611111,Papua New Guinea
small_airport,Lady Elliot Island Airstrip,AU,LYT,152.7156,-24.1129,Australia
small_airport,Agnew Airport,AU,AGW,142.1490021,-12.14560032,Australia
small_airport,Alroy Downs Airport,AU,AYD,136.0789948,-19.29080009,Australia
small_airport,Baniyala Airport,AU,BYX,136.227005,-13.19810009,Australia
small_airport,Coolibah Airport,AU,COB,130.9620056,-15.54829979,Australia
small_airport,Coorabie Airport,AU,CRJ,132.2960052,-31.89439964,Australia
small_airport,Carlton Hill Airport,AU,CRY,128.5339966,-15.50189972,Australia
small_airport,Cresswell Downs Airport,AU,CSD,135.9160004,-17.94799995,Australia
small_airport,Diamantina Lakes Airport,AU,DYM,141.1450043,-23.76169968,Australia
seaplane_base,Hayman Island Resort Seaplane Base,AU,HIS,148.8809967,-20.05999947,Australia
small_airport,Helenvale Airport,AU,HLV,145.2149963,-15.6857996,Australia
small_airport,Kimberley Downs Airport,AU,KBD,124.3550034,-17.39780045,Australia
small_airport,Kulgera Airport,AU,KGR,133.2920074,-25.84280014,Australia
small_airport,Miranda Downs Airport,AU,MWY,141.886002,-17.328899,Australia
small_airport,Camballin Airport,AU,MYO,124.2720032,-18.12470055,Australia
small_airport,Orchid Beach Airport,AU,OKB,153.3150024,-24.95940018,Australia
small_airport,Peppimenarti Airport,AU,PEP,130.0910034,-14.14420033,Australia
small_airport,Rockhampton Downs Airport,AU,RDA,135.201004,-18.95330048,Australia
small_airport,Sturt Creek Airport,AU,SSK,128.173996,-19.16640091,Australia
small_airport,Shaw River Airport,AU,SWB,119.3619995,-21.51029968,Australia
small_airport,Tom Price Airport,AU,TPR,117.8690033,-22.74600029,Australia
small_airport,Torwood Airport,AU,TWP,143.75,-17.36330032,Australia
small_airport,Springvale Airport,AU,ZVG,127.6699982,-17.78689957,Australia
small_airport,Aua Island Airport,PG,AUI,143.0647222,-1.460555556,Papua New Guinea
small_airport,Ambunti Airport,PG,AUJ,142.8231667,-4.215666667,Papua New Guinea
small_airport,Agaun Airport,PG,AUP,149.385667,-9.930833,Papua New Guinea
small_airport,Aumo Airport,PG,AUV,148.4452778,-5.731111111,Papua New Guinea
small_airport,Alowe Airport,GA,AWE,9.444,-0.545,Gabon
closed,Awar Airport,PG,AWR,144.853,-4.124,Papua New Guinea
medium_airport,Alxa Left Banner Bayanhot Airport,CN,AXF,105.58858,38.74831,China
small_airport,Kompiam Airport,PG,KPM,143.9247222,-5.381666667,Papua New Guinea
medium_airport,Buka Airport,PG,BUA,154.6730042,-5.422319889,Papua New Guinea
small_airport,Biaru Airport,PG,BRP,146.7594,-7.6693,Papua New Guinea
medium_airport,Chimbu Airport,PG,CMU,144.970993,-6.024290085,Papua New Guinea
small_airport,Munduku Airport,PG,MDM,143.4516,-4.6204,Papua New Guinea
small_airport,Kondobol Airport,PG,KPF,142.5049,-8.5336,Papua New Guinea
small_airport,Dinangat Airport,PG,DNU,146.6772,-6.1546,Papua New Guinea
small_airport,Doini Airport,PG,DOI,150.7218,-10.7009,Papua New Guinea
medium_airport,Daru Airport,PG,DAU,143.2079926,-9.086759567,Papua New Guinea
small_airport,Embessa Airport,PG,EMS,148.7628,-9.447,Papua New Guinea
small_airport,Edwaki Airport,PG,XYR,141.792234,-3.883986,Papua New Guinea
small_airport,Eliptamin Airport,PG,EPT,141.6779,-5.0412,Papua New Guinea
small_airport,Engati Airstrip,PG,EGA,146.1053,-6.9179,Papua New Guinea
small_airport,Emo River Airstrip,PG,EMO,148.0415,-9.1234,Papua New Guinea
small_airport,Erume Airport,PG,ERU,146.9747,-8.2538,Papua New Guinea
small_airport,Meselia Airport,PG,MFZ,149.1183,-6.1364,Papua New Guinea
small_airport,Feramin Airport,PG,FRQ,141.6988,-5.208,Papua New Guinea
small_airport,Frieda River Airport,PG,FAQ,141.960138,-4.610468,Papua New Guinea
small_airport,Fuma Airport,PG,FUM,142.4408,-6.3933,Papua New Guinea
medium_airport,Goroka Airport,PG,GKA,145.3919983,-6.081689835,Papua New Guinea
small_airport,Guari Airport,PG,GUG,146.8722,-8.1286,Papua New Guinea
small_airport,Garasa Airport,PG,GRL,147.213461,-7.980713,Papua New Guinea
medium_airport,Gurney Airport,PG,GUR,150.3339996,-10.3114996,Papua New Guinea
small_airport,Gusap Airport,PG,GAP,145.959047,-6.053196,Papua New Guinea
medium_airport,Girua Airport,PG,PNP,148.3090057,-8.80453968,Papua New Guinea
small_airport,Gasuke Airport,PG,GBC,141.7393,-6.1028,Papua New Guinea
small_airport,Habi Airport,PG,HBD,142.4893,-6.32,Papua New Guinea
small_airport,Heiweni Airport,PG,HNI,146.4276,-7.4223,Papua New Guinea
small_airport,Honinabi Airport,PG,HNN,142.1771,-16.2457,Papua New Guinea
medium_airport,Kimbe Airport,PG,HKN,150.4049988,-5.462170124,Papua New Guinea
small_airport,Haivaro Airport,PG,HIT,143.059,-6.9406,Papua New Guinea
small_airport,Imane Airport,PG,IMN,146.1072,-6.7524,Papua New Guinea
small_airport,Kungim Airport,PG,KGM,141.03,-5.671,Papua New Guinea
small_airport,Imonda Airport,PG,IMD,141.1573,-3.328,Papua New Guinea
small_airport,Ialibu Airport,PG,IAL,143.9944,-6.2782,Papua New Guinea
small_airport,Witu Airport,PG,WIU,149.440112,-4.689522,Papua New Guinea
small_airport,Yongai Airport,PG,KGH,147.4603,-8.5289,Papua New Guinea
small_airport,Losuia Airport,PG,LSA,151.0809937,-8.505820274,Papua New Guinea
small_airport,Kopiago Airport,PG,KPA,142.4977,-5.3883,Papua New Guinea
small_airport,Kiunga Airport,PG,UNG,141.2819977,-6.125710011,Papua New Guinea
small_airport,Kanainj Airport,PG,KNE,144.7072,-5.2903,Papua New Guinea
small_airport,Kikori Airport,PG,KRI,144.2500763,-7.424379826,Papua New Guinea
medium_airport,Kerema Airport,PG,KMA,145.7709961,-7.963610172,Papua New Guinea
small_airport,Kar Kar Airport,PG,KRX,145.9404,-4.557,Papua New Guinea
small_airport,Aropa Airport,PG,KIE,155.728139,-6.305417,Papua New Guinea
small_airport,Kuri Airport,PG,KUQ,143.276111,-7.135083,Papua New Guinea
medium_airport,Kavieng Airport,PG,KVG,150.8079987,-2.579400063,Papua New Guinea
small_airport,Londolovit Airport,PG,LNV,152.6289978,-3.043610096,Papua New Guinea
small_airport,Lab Lab Airport,PG,LAB,148.0566,-5.7204,Papua New Guinea
small_airport,Lowai Airport,PG,LWI,146.6458,-6.3344,Papua New Guinea
small_airport,Leron Plains Airport,PG,LPN,146.3434,-6.3917,Papua New Guinea
small_airport,Lese Airport,PG,LNG,146.2765,-8.2799,Papua New Guinea
small_airport,Long Island Airport,PG,LSJ,147.0177,-5.3604,Papua New Guinea
seaplane_base,Yas Island Seaplane Base,AE,AYM,54.6103,24.467,United Arab Emirates
small_airport,Manari Airport,PG,MRM,147.6219,-9.1908,Papua New Guinea
small_airport,Morobe Airport,PG,OBM,147.59,-7.74,Papua New Guinea
medium_airport,Madang Airport,PG,MAG,145.7890015,-5.207079887,Papua New Guinea
medium_airport,Mount Hagen Kagamuga Airport,PG,HGU,144.2960052,-5.826789856,Papua New Guinea
small_airport,Mougulu Airport,PG,GUV,142.420775,-6.280859,Papua New Guinea
medium_airport,Mendi Airport,PG,MDU,143.656998,-6.14774,Papua New Guinea
medium_airport,Momote Airport,PG,MAS,147.423996,-2.06189,Papua New Guinea
small_airport,Moro Airport,PG,MXH,143.2380066,-6.363329887,Papua New Guinea
small_airport,Misima Island Airport,PG,MIS,152.8379974,-10.6892004,Papua New Guinea
small_airport,Marawaka Airport,PG,MWG,145.8849,-6.9736,Papua New Guinea
small_airport,Nankina Airport,PG,NKN,146.4533,-5.837,Papua New Guinea
small_airport,Negarbo(Negabo) Airport,PG,GBF,144.703058,-6.567778,Papua New Guinea
small_airport,Manguna Airport,PG,MFO,151.792333,-5.577778,Papua New Guinea
small_airport,Kasonombe Airport,PG,KSB,146.9859,-6.3819,Papua New Guinea
small_airport,Nomane Airport,PG,NMN,145.070667,-6.32183,Papua New Guinea
small_airport,Nambaiyufa Airport,PG,NBA,145.2424,-6.2412,Papua New Guinea
medium_airport,Nadzab Airport,PG,LAE,146.725977,-6.569803,Papua New Guinea
small_airport,Konge Airport,PG,KGB,147.2152,-6.2239,Papua New Guinea
small_airport,Oksapmin Airport,PG,OKP,142.2259,-5.2261,Papua New Guinea
small_airport,Komako Airport,PG,HOC,145.8827,-7.3984,Papua New Guinea
small_airport,Komaio Airport,PG,KCJ,143.5952,-7.2714,Papua New Guinea
small_airport,Koroba Airport,PG,KDE,142.7441,-5.6952,Papua New Guinea
small_airport,Open Bay Airport,PG,OPB,151.696195,-4.794727,Papua New Guinea
small_airport,Pangoa Airport,PG,PGB,141.5605,-7.0226,Papua New Guinea
small_airport,Pangia Airport,PG,PGN,144.1084,-6.386,Papua New Guinea
small_airport,Mapoda Airport,PG,MPF,143.1694,-7.979,Papua New Guinea
small_airport,Pumani Airport,PG,PMN,149.4766,-9.7469,Papua New Guinea
large_airport,Port Moresby Jacksons International Airport,PG,POM,147.2200012,-9.443380356,Papua New Guinea
small_airport,Sopu Airport,PG,SPH,147.1659,-8.3038,Papua New Guinea
small_airport,Sialum Airport,PG,SXA,147.5955,-6.0908,Papua New Guinea
small_airport,Rumginae Airport,PG,RMN,141.2716667,-5.897222222,Papua New Guinea
small_airport,Karimui Airport,PG,KMR,144.823,-6.4921,Papua New Guinea
small_airport,Maramuni Airport,PG,MWI,143.4829,-5.13,Papua New Guinea
small_airport,May River Airstrip,PG,MRH,141.785,-4.3615,Papua New Guinea
small_airport,Suabi Airport,PG,SBE,142.2783333,-6.104444444,Papua New Guinea
small_airport,Simberi Airport,PG,NIS,151.9977778,-2.662222222,Papua New Guinea
small_airport,Sila Airport,PG,SIL,148.38925,-9.073555556,Papua New Guinea
small_airport,Sabah Airport,PG,SBV,155.0489,-5.5765,Papua New Guinea
small_airport,Simbai Airport,PG,SIM,144.5447222,-5.278611111,Papua New Guinea
small_airport,Selbang Airport,PG,SBC,141.752,-5.315,Papua New Guinea
small_airport,Sepik Plains Airport,PG,SPV,143.6734,-3.8821,Papua New Guinea
small_airport,Sauren Airport,PG,SXW,148.8543,-5.9701,Papua New Guinea
small_airport,Masa Airport,PG,MBV,147.591,-6.345,Papua New Guinea
small_airport,Tari Airport,PG,TIZ,142.947998,-5.84499979,Papua New Guinea
small_airport,Tabubil Airport,PG,TBG,141.225998,-5.27861,Papua New Guinea
small_airport,Tapini Airport,PG,TPI,146.9891667,-8.356666667,Papua New Guinea
medium_airport,Tokua Airport,PG,RAB,152.3800049,-4.340459824,Papua New Guinea
small_airport,Tekin Airport,PG,TKW,142.1651944,-5.243666667,Papua New Guinea
small_airport,Tep Tep Airport,PG,TEP,146.5595,-5.9553,Papua New Guinea
small_airport,Tsewi Airport,PG,TSW,146.1272,-7.0695,Papua New Guinea
small_airport,Tarakbits Airport,PG,TRJ,141.0421,-5.614,Papua New Guinea
small_airport,Tawa Airport,PG,TWY,146.1067,-7.4463,Papua New Guinea
small_airport,Tekadu Airport,PG,TKB,146.5503,-7.6808,Papua New Guinea
small_airport,Aiyura Airport,PG,AYU,145.9041667,-6.338055556,Papua New Guinea
small_airport,Umba Airport,PG,UMC,145.966,-7.0214,Papua New Guinea
small_airport,Uroubi Airport,PG,URU,148.5591,-9.5162,Papua New Guinea
small_airport,Upiara Airport,PG,UPR,142.6503,-8.5411,Papua New Guinea
small_airport,Uvol Airport,PG,UVO,150.9557,-6.0178,Papua New Guinea
small_airport,Talasea Airport,PG,TLW,150.0089,-5.2726,Papua New Guinea
small_airport,Torembi Airport,PG,TCJ,143.1329,-4.0165,Papua New Guinea
medium_airport,Vanimo Airport,PG,VAI,141.3028,-2.6926,Papua New Guinea
small_airport,Tonu Airport,PG,TON,155.4326,-6.6552,Papua New Guinea
small_airport,Wabo Airport,PG,WAO,145.0751111,-6.989444444,Papua New Guinea
medium_airport,Wapenamanda Airport,PG,WBM,143.8950043,-5.643300056,Papua New Guinea
small_airport,Wawoi Falls Airport,PG,WAJ,142.6557,-6.9523,Papua New Guinea
medium_airport,Wewak International Airport,PG,WWK,143.6690063,-3.583830118,Papua New Guinea
small_airport,Wonenara Airport,PG,WOA,145.8919444,-6.796861111,Papua New Guinea
small_airport,Wakunai Airport,PG,WKN,155.2223,-5.8603,Papua New Guinea
small_airport,Wasu Airport,PG,WSU,147.1982253,-5.961709449,Papua New Guinea
small_airport,Woitape Airport,PG,WTP,147.2525,-8.545833333,Papua New Guinea
small_airport,Wau Airport,PG,WUG,146.7186111,-7.345555556,Papua New Guinea
small_airport,Yeva Airport,PG,YVD,146.188,-7.548,Papua New Guinea
small_airport,Sim Airport,PG,SMJ,146.9273,-7.75,Papua New Guinea
small_airport,Weam Airport,PG,WEP,141.1381,-8.6184,Papua New Guinea
seaplane_base,Arugam Bay SPB,LK,AYY,81.82388889,6.86,Sri Lanka
small_airport,Yalumet Airport,PG,KYX,147.0117,-6.09,Papua New Guinea
small_airport,Yasuru Airport,PG,KSX,146.1813,-6.6015,Papua New Guinea
closed,Zahn's Airport,US,AYZ,-73.4,40.71,United States
small_airport,Wasum Airport,PG,WUM,149.337,-6.0491,Papua New Guinea
medium_airport,Zabrat Airport,AZ,ZXT,49.97680664,40.49554222,Azerbaijan
heliport,Lava Falls Heliport,US,HAE,-113.0920029,36.1916008,United States
small_airport,Amazon Bay Airport,PG,AZB,149.3383333,-10.29916667,Papua New Guinea
small_airport,Bali Airport,PG,BAJ,149.1333333,-4.883333333,Papua New Guinea
closed,Baibara Airport,PG,BAP,149.6414,-10.3432,Papua New Guinea
small_airport,Branson Airport,US,BKG,-93.200544,36.532082,United States
closed,Baca Grande Airfield,US,BCJ,-105.7766667,37.96477778,United States
small_airport,Bambu Airport,PG,BCP,146.4925,-5.863611111,Papua New Guinea
medium_airport,Benguera Island Airport,MZ,BCW,35.43830109,-21.85330009,Mozambique
small_airport,Milyakburra Airport,AU,BCZ,136.2016667,-13.78083333,Australia
small_airport,Willmar Municipal -John L Rice Field,US,ILL,-95.13040161,45.11769867,United States
small_airport,Baindoung Airport,PG,BDZ,146.9422222,-6.347222222,Papua New Guinea
closed,Bereina Airport,PG,BEA,146.5083,-8.64,Papua New Guinea
closed,Berlin Brandenburg Airport (U.C.),DE,BER,13.493889,52.351389,Germany
small_airport,Malevo Airport,BG,HKV,25.60479927,41.87179947,Bulgaria
medium_airport,Bezmer Air Base,BG,JAM,26.35219955,42.45489883,Bulgaria
medium_airport,Aasiaat Airport,GL,JEG,-52.78469849,68.72180176,Greenland
heliport,Aappilattoq (Qaasuitsup) Heliport,GL,AOQ,-55.596287,72.88703,Greenland
heliport,Tasiilaq Heliport,GL,AGM,-37.618335,65.612296,Greenland
heliport,Alluitsup Paa Heliport,GL,LLU,-45.56917,60.46445,Greenland
heliport,Attu Heliport,GL,QGQ,-53.62186968,67.94066286,Greenland
medium_airport,Narsarsuaq Airport,GL,UAK,-45.42599869,61.16049957,Greenland
heliport,Qasigiannguit Heliport,GL,JCH,-51.17344737,68.82281555,Greenland
small_airport,Neerlerit Inaat Airport,GL,CNP,-22.65049934,70.74310303,Greenland
closed,Dundas Airport,GL,DUN,-68.8,76.525,Greenland
heliport,Eqalugaarsuit Heliport,GL,QFG,-45.91406196,60.61971965,Greenland
medium_airport,Godthaab / Nuuk Airport,GL,GOH,-51.67810059,64.19090271,Greenland
heliport,Qeqertarsuaq Heliport,GL,JGO,-53.51487637,69.25118199,Greenland
heliport,Iginniarfik,GL,QFI,-53.17352772,68.14722559,Greenland
heliport,Ikerassaarsuk Heliport,GL,QRY,-53.44145894,68.14088101,Greenland
heliport,Ilimanaq Heliport,GL,XIQ,-51.11431539,69.080915,Greenland
heliport,Innarsuit Heliport,GL,IUI,-56.010817,73.199895,Greenland
heliport,Isortoq Heliport,GL,IOQ,-38.976552,65.547792,Greenland
heliport,Ikamiut Heliport,GL,QJI,-51.83226228,68.6342531,Greenland
heliport,Qaqortoq Heliport,GL,JJU,-46.02991864,60.71568416,Greenland
small_airport,Ilulissat Airport,GL,JAV,-51.05709839,69.24320221,Greenland
heliport,Kangaatsiaq Heliport,GL,QPW,-53.46020758,68.31265749,Greenland
small_airport,Kulusuk Airport,GL,KUS,-37.12360001,65.57360077,Greenland
heliport,Kuummiut Heliport,GL,KUZ,-36.997919,65.863935,Greenland
heliport,Kullorsuaq Heliport,GL,KHQ,-57.226828,74.57805,Greenland
heliport,Kangersuatsiaq Heliport,GL,KGQ,-55.536586,72.381092,Greenland
heliport,Kitsissuarsuit Heliport,GL,QJE,-53.12329531,68.857926,Greenland
small_airport,Maniitsoq Airport,GL,JSU,-52.93939972,65.41249847,Greenland
heliport,Nanortalik Heliport,GL,JNN,-45.23297668,60.14188398,Greenland
heliport,Narsaq Heliport,GL,JNS,-46.05992317,60.91728273,Greenland
heliport,Niaqornat Heliport,GL,NIQ,-53.662945,70.789385,Greenland
heliport,Nuussuaq Heliport,GL,NSQ,-57.065037,74.109853,Greenland
small_airport,Bongo Airport,GA,BGP,10.2088,-2.1713,Gabon
small_airport,Paamiut Airport,GL,JFR,-49.67093658,62.01473618,Greenland
heliport,Qeqertaq Heliport,GL,QQT,-51.30091667,69.99586111,Greenland
small_airport,Qaanaaq Airport,GL,NAQ,-69.38870239,77.48860168,Greenland
heliport,Ittoqqortoormiit Heliport,GL,OBY,-21.97167993,70.48822882,Greenland
medium_airport,Kangerlussuaq Airport,GL,SFJ,-50.71160316,67.0122219,Greenland
heliport,Siorapaluk Heliport,GL,SRK,-70.638657,77.786517,Greenland
heliport,Saarloq Heliport,GL,QOQ,-46.024722,60.537778,Greenland
medium_airport,Sisimiut Airport,GL,JHS,-53.729301,66.951302,Greenland
heliport,Savissivik Heliport,GL,SVR,-65.117683,76.018613,Greenland
heliport,Tasiusaq (Qaasuitsup) Heliport,GL,TQA,-56.06028,73.373055,Greenland
medium_airport,Thule Air Base,GL,THU,-68.70320129,76.53119659,Greenland
heliport,Tiniteqilaaq Heliport,GL,TQI,-37.783409,65.892027,Greenland
small_airport,Upernavik Airport,GL,JUV,-56.13059998,72.79019928,Greenland
heliport,Uummannaq Heliport,GL,UMD,-52.11163044,70.68042793,Greenland
small_airport,Qaarsut Airport,GL,JQA,-52.69620132,70.73419952,Greenland
heliport,Ukkusissat Heliport,GL,JUK,-51.890016,71.049438,Greenland
small_airport,Bahía de los Ángeles Airport,MX,BHL,-113.560997,28.9786,Mexico
small_airport,Brighton Downs Airport,AU,BHT,141.5627778,-23.36388889,Australia
medium_airport,Akureyri Airport,IS,AEY,-18.0727005,65.66000366,Iceland
small_airport,Bildudalur Airport,IS,BIU,-23.5461998,65.64129639,Iceland
small_airport,Borgarfjörður eystri Airport,IS,BGJ,-13.80500031,65.5164032,Iceland
small_airport,Bakkafjörður Airport,IS,BJD,-14.82439995,66.02189636,Iceland
small_airport,Hjaltabakki Airport,IS,BLO,-20.28750038,65.64499664,Iceland
small_airport,Búðardalur Airport,IS,BQD,-21.8003006,65.07530212,Iceland
small_airport,Breiðdalsvík Airport,IS,BXV,-14.02280045,64.79000092,Iceland
small_airport,Djúpivogur Airport,IS,DJU,-14.28279972,64.64420319,Iceland
medium_airport,Egilsstaðir Airport,IS,EGS,-14.40139961,65.28330231,Iceland
small_airport,Fáskrúðsfjörður Airport,IS,FAS,-14.06060028,64.93170166,Iceland
small_airport,Fagurhólsmýri Airport,IS,FAG,-16.64109993,63.87469864,Iceland
small_airport,Grundarfjörður Airport,IS,GUU,-23.22470093,64.99140167,Iceland
small_airport,Gjögur Airport,IS,GJR,-21.32690048,65.99530029,Iceland
small_airport,Grímsey Airport,IS,GRY,-18.0173,66.5458,Iceland
small_airport,Hólmavík Airport,IS,HVK,-21.69639969,65.70469666,Iceland
medium_airport,Hornafjörður Airport,IS,HFN,-15.2272,64.295601,Iceland
small_airport,Holt Airport,IS,FLI,-23.4416914,66.01418043,Iceland
medium_airport,Húsavík Airport,IS,HZK,-17.426001,65.952301,Iceland
small_airport,Krókstaðarmelar Airport,IS,HVM,-20.84690094,65.2664032,Iceland
small_airport,Ingjaldssanður Airport,IS,HLO,-23.69610023,66.05000305,Iceland
medium_airport,Ísafjörður Airport,IS,IFJ,-23.13529968,66.05809784,Iceland
closed,Biliau Airport,PG,BIJ,146.339,-5.578,Papua New Guinea
large_airport,Keflavik International Airport,IS,KEF,-22.6056,63.985001,Iceland
small_airport,Kópasker Airport,IS,OPA,-16.4666996,66.31079865,Iceland
small_airport,Sauðárkrókur Airport,IS,SAK,-19.57279968,65.73169708,Iceland
small_airport,Norðfjörður Airport,IS,NOR,-13.74639988,65.13189697,Iceland
small_airport,Ólafsfjörður Airport,IS,OFJ,-18.66670036,66.08329773,Iceland
small_airport,Patreksfjörður Airport,IS,PFJ,-23.965,65.555801,Iceland
small_airport,Reykhólar Airport,IS,RHA,-22.20611572,65.45262909,Iceland
small_airport,Rif Airport,IS,OLI,-23.82309914,64.91139984,Iceland
small_airport,Raufarhöfn Airport,IS,RFN,-15.91829967,66.40640259,Iceland
medium_airport,Reykjavik Airport,IS,RKV,-21.94059944,64.12999725,Iceland
small_airport,Reykjahlíð Airport,IS,MVA,-16.91810036,65.65579987,Iceland
medium_airport,Siglufjörður Airport,IS,SIJ,-18.9167,66.133301,Iceland
small_airport,Stykkishólmur Airport,IS,SYK,-22.7942009,65.05809784,Iceland
small_airport,Þingeyri Airport,IS,TEY,-23.55999947,65.87030029,Iceland
small_airport,Thorshofn Airport,IS,THO,-15.3355999,66.21849823,Iceland
medium_airport,Vestmannaeyjar Airport,IS,VEY,-20.27890015,63.42430115,Iceland
small_airport,Vopnafjörður Airport,IS,VPN,-14.85060024,65.72059631,Iceland
closed,Bimin Airport,PG,BIZ,142.0330556,-5.286111111,Papua New Guinea
small_airport,Baleela Airport,SD,BJE,28.52305556,11.19944444,Sudan
small_airport,Bahja Airport,OM,BJQ,56.06777778,19.87305556,Oman
seaplane_base,Bentota River Waterdrome,LK,BJT,79.996,6.431,Sri Lanka
large_airport,Pristina International Airport,XK,PRN,21.035801,42.5728,Kosovo
small_airport,Bomai Airport,PG,BMH,144.637,-6.373166667,Papua New Guinea
small_airport,Bamburi Airport,KE,BMQ,39.730768,-3.98191,Kenya
small_airport,Bamu Airport,PG,BMZ,143.2433,-7.8485,Papua New Guinea
seaplane_base,Baranof Warm Springs Float and Seaplane Base,US,BNF,-134.833146,57.088799,United States
small_airport,Bodinumu Airport,PG,BNM,147.6667222,-9.107777778,Papua New Guinea
closed,Baganga airport,PH,BNQ,126.5688889,7.611944444,Philippines
small_airport,Bundi Airport,PG,BNT,145.2275,-5.742222222,Papua New Guinea
closed,Boana Airport,PG,BNV,146.825,-6.433,Papua New Guinea
closed,Banz Airport,PG,BNZ,144.623,-5.807,Papua New Guinea
small_airport,Rurenabaque Airport,BO,RBQ,-67.49680328,-14.42790031,"Bolivia, Plurinational State of"
small_airport,Baures Airport,BO,BVL,-63.58333206,-13.58333302,"Bolivia, Plurinational State of"
heliport,Bolling Air Force Base,US,BOF,-77.01609802,38.84289932,United States
small_airport,Brookings Airport,US,BOK,-124.290001,42.0746,United States
closed,Boku Airport,PG,BOQ,155.3419,-6.5427,Papua New Guinea
small_airport,Bosset Airport,PG,BOT,141.1063222,-7.237257,Papua New Guinea
small_airport,Boang Airport,PG,BOV,153.2812,-3.3834,Papua New Guinea
small_airport,Batuna Aerodrome,SB,BPF,158.1193056,-8.562027778,Solomon Islands
seaplane_base,Bartlett Cove Seaplane Base,US,BQV,-135.8849945,58.4552002,United States
closed,Tucumã Airport,BR,TUZ,-51.1478,-6.7488,Brazil
small_airport,Alenquer Airport,BR,ALT,-54.7231,-1.917,Brazil
closed,Suia-Missu Airport,BR,SWM,-51.43470001,-11.67169952,Brazil
closed,Whitesburg Municipal Airport,US,BRG,-82.8742,37.2219,United States
seaplane_base,Bimini North Seaplane Base,BS,NSB,-79.25,25.7670002,Bahamas
small_airport,Bensbach Airport,PG,BSP,141.2594444,-8.858055556,Papua New Guinea
small_airport,Besakoa Airport,MG,BSV,47.06166667,-15.6725,Madagascar
small_airport,Bulolo Airport,PG,BUL,146.6495419,-7.216286671,Papua New Guinea
closed,Bolovip Airstrip,PG,BVP,141.655,-5.3633,Papua New Guinea
small_airport,Esperadinha Airport,CV,BVR,-24.746,14.86430556,Cape Verde
small_airport,Hukuntsi Airport,BW,HUK,21.758101,-23.9897,Botswana
small_airport,Bawan Airport,PG,BWJ,146.8816667,-6.396944444,Papua New Guinea
small_airport,Bewani Airport,PG,BWP,141.1652778,-3.021666667,Papua New Guinea
seaplane_base,Blue Lagoon Seaplane Base,FJ,BXL,177.368,-16.943,Fiji
small_airport,Bunsil Airport,PG,BXZ,147.8667,-5.7243,Papua New Guinea
small_airport,Boundary Airport,US,BYA,-141.1130066,64.07830048,United States
small_airport,Bella Yella Airport,LR,BYL,-9.993722222,7.369166667,Liberia
seaplane_base,Beira Lake Seaplane Base,LK,BYV,79.85416667,6.929444444,Sri Lanka
small_airport,Hector Silva Airstrip,BZ,BCV,-88.776496,17.269603,Belize
medium_airport,Big Creek Airport,BZ,BGK,-88.40791321,16.51936913,Belize
medium_airport,Caye Caulker Airport,BZ,CUK,-88.03250122,17.73469925,Belize
medium_airport,Caye Chapel Airport,BZ,CYC,-88.04109955,17.70079994,Belize
medium_airport,Corozal Municipal Airport,BZ,CZH,-88.41190338,18.38220024,Belize
medium_airport,Dangriga Airport,BZ,DGA,-88.23098755,16.98250961,Belize
small_airport,Independence Airport,BZ,INB,-88.44129944,16.53450012,Belize
small_airport,Melinda Airport,BZ,MDB,-88.30419922,17.00429916,Belize
small_airport,Orange Walk Airport,BZ,ORZ,-88.58386993,18.04676628,Belize
medium_airport,Placencia Airport,BZ,PLJ,-88.36151123,16.53695679,Belize
medium_airport,Punta Gorda Airport,BZ,PND,-88.8082962,16.10239983,Belize
medium_airport,Sartaneja Airport,BZ,SJX,-88.13079834,18.35610008,Belize
medium_airport,San Pedro Airport,BZ,SPR,-87.9711,17.9139,Belize
small_airport,Matthew Spain Airport,BZ,SQS,-89.0098,17.1859,Belize
small_airport,Santa Cruz Airport,BZ,STU,-88.45629883,18.27210045,Belize
small_airport,Silver Creek Airport,BZ,SVK,-88.33999634,16.72529984,Belize
medium_airport,Belize City Municipal Airport,BZ,TZA,-88.19444275,17.51638985,Belize
medium_airport,Bazaruto Island Airport,MZ,BZB,35.4729,-21.5411,Mozambique
small_airport,Bemolanga Airport,MG,BZM,45.08883333,-17.6925,Madagascar
closed,Buzzards Point Seaplane Base,US,BZS,-77.011,38.863,United States
closed,Blissville Airport,CA,YYS,-66.543678,45.605633,Canada
closed,Clinton Creek Airport,CA,YLM,-140.741748,64.475545,Canada
closed,Deception Airport,CA,YGY,-74.55468178,62.11231445,Canada
closed,Lady Franklin Point Airport,CA,YUJ,-113.224411,68.47531262,Canada
closed,Lupin Airport,CA,YWO,-111.25,65.76667023,Canada
closed,Moose Lake Airport,CA,YAD,-100.3439713,53.70625896,Canada
closed,Mould Bay Airport,CA,YMD,-119.3216,76.2392,Canada
closed,Paradise River Airport,CA,YDE,-57.23333359,53.43,Canada
closed,Rivers Airport,CA,YYI,-100.3139305,50.01005576,Canada
closed,Saglek Airport,CA,YSV,-62.655373,58.475119,Canada
closed,Terrace Bay Airport,CA,YTJ,-87.09943771,48.81197899,Canada
closed,Winisk Airport,CA,YWN,-85.1174,55.2242,Canada
small_airport,Stuart Island Airstrip,CA,YRR,-125.1316166,50.40944743,Canada
small_airport,Mary River Aerodrome,CA,YMV,-79.35694444,71.32416667,Canada
seaplane_base,Bedwell Harbour Seaplane Base,CA,YBW,-123.2330017,48.75,Canada
seaplane_base,Tofino Harbour Seaplane Base,CA,YTP,-125.91,49.155,Canada
closed,Bronson Creek Airport,CA,YBM,-131.0870056,56.68109894,Canada
closed,Alice Arm/Silver City Seaplane Base,CA,ZAA,-129.4830017,55.46670151,Canada
seaplane_base,Nanaimo Harbour Water Airport,CA,ZNA,-123.9499969,49.18330002,Canada
small_airport,Trail Airport,CA,YZZ,-117.6090012,49.05559921,Canada
small_airport,Merritt Airport,CA,YMB,-120.7470016,50.12279892,Canada
seaplane_base,Campbell River Seaplane Base,CA,YHH,-125.25,50.049999,Canada
seaplane_base,Whistler/Green Lake Water Aerodrome,CA,YWS,-122.9489975,50.14360046,Canada
seaplane_base,Bamfield Seaplane Base,CA,YBF,-125.1330032,48.83330154,Canada
seaplane_base,Big Bay Seaplane Base,CA,YIG,-125.1372,50.3923,Canada
small_airport,Chilko Lake (Tsylos Park Lodge) Airport,CA,CJH,-124.1419983,51.62609863,Canada
seaplane_base,Pender Harbour Seaplane Base,CA,YPT,-124.024884,49.623785,Canada
seaplane_base,Ocean Falls Seaplane Base,CA,ZOF,-127.7170029,52.36669922,Canada
small_airport,Courtenay Airpark,CA,YCA,-124.9820023,49.6794014,Canada
small_airport,Creston Valley Regional Airport - Art Sutcliffe Field,CA,CFQ,-116.4980011,49.03689957,Canada
small_airport,Anahim Lake Airport,CA,YAA,-125.3030014,52.45249939,Canada
small_airport,Douglas Lake Airport,CA,DGF,-120.1712734,50.16546005,Canada
small_airport,Fort MacKay/Albian Aerodrome,CA,JHL,-111.4189987,57.22389984,Canada
seaplane_base,Tahsis Seaplane Base,CA,ZTS,-126.6669998,49.91669846,Canada
small_airport,Duncan Airport,CA,DUQ,-123.7097025,48.75453362,Canada
closed,Port Simpson Seaplane Base,CA,YPI,-130.432999,54.5667,Canada
small_airport,Sechelt-Gibsons Airport,CA,YHS,-123.7190018,49.46060181,Canada
seaplane_base,Kitkatla Seaplane Base,CA,YKK,-130.4329987,53.79999924,Canada
seaplane_base,Powell Lake Seaplane Base,CA,WPL,-124.5329971,49.88330078,Canada
small_airport,Qualicum Beach Airport,CA,XQU,-124.393997,49.3372,Canada
small_airport,Port Mcneill Airport,CA,YMP,-127.0289993,50.57559967,Canada
seaplane_base,Rivers Inlet Seaplane Base,CA,YRN,-127.264044,51.683985,Canada
seaplane_base,Sullivan Bay Seaplane Base,CA,YTG,-126.831069,50.885359,Canada
seaplane_base,Mansons Landing Seaplane Base,CA,YMU,-124.9830017,50.06669998,Canada
closed,Mayne Island Seaplane Base,CA,YAV,-123.3000031,48.86669922,Canada
seaplane_base,Bella Bella/Shearwater Seaplane Base,CA,YSX,-128.08299,52.150002,Canada
seaplane_base,Ganges Seaplane Base,CA,YGG,-123.4969,48.8545,Canada
seaplane_base,Hartley Bay Seaplane Base,CA,YTB,-129.25,53.416698,Canada
small_airport,Cache Creek-Ashcroft Regional Airport,CA,YZA,-121.321314,50.775258,Canada
small_airport,Bella Bella (Campbell Island) Airport,CA,ZEL,-128.156994,52.185001,Canada
small_airport,Cherrabun Airport,AU,CBC,125.5377778,-18.91777778,Australia
closed,Telegraph Creek Airport,CA,YTX,-131.117007,57.916698,Canada
small_airport,Alberni Valley Regional Airport,CA,YPB,-124.931,49.321899,Canada
small_airport,Bob Quinn Lake Airport,CA,YBO,-130.25,56.96670151,Canada
small_airport,Tungsten (Cantung) Airport,CA,TNS,-128.2030029,61.95690155,Canada
small_airport,Tumbler Ridge Airport,CA,TUX,-120.9349976,55.02500153,Canada
small_airport,Williams Harbour Airport,CA,YWM,-55.78469849,52.56689835,Canada
small_airport,Postville Airport,CA,YSO,-59.78507,54.9105,Canada
small_airport,Black Tickle Airport,CA,YBI,-55.78499985,53.4693985,Canada
small_airport,St. Lewis (Fox Harbour) Airport,CA,YFX,-55.6739006,52.37279892,Canada
small_airport,Port Hope Simpson Airport,CA,YHA,-56.28609848,52.52809906,Canada
small_airport,Rigolet Airport,CA,YRG,-58.45750046,54.17969894,Canada
small_airport,Diavik Airport,CA,DVK,-110.2890015,64.51139832,Canada
small_airport,Doris Lake,CA,JOJ,-106.5852814,68.12527466,Canada
small_airport,Fairview Airport,CA,ZFW,-118.4349976,56.08140183,Canada
small_airport,Hinton/Jasper-Hinton Airport,CA,YJP,-117.7529984,53.31919861,Canada
small_airport,Whatì Airport,CA,YLE,-117.2460022,63.13169861,Canada
small_airport,Grande Cache Airport,CA,YGC,-118.8740005,53.91690063,Canada
small_airport,Drayton Valley Industrial Airport,CA,YDC,-114.9599991,53.26580048,Canada
small_airport,Fort McMurray / Mildred Lake Airport,CA,NML,-111.5739975,57.05559921,Canada
small_airport,Conklin (Leismer) Airport,CA,CFM,-111.278999,55.695301,Canada
small_airport,St. Paul Airport,CA,ZSP,-111.3799973,53.99330139,Canada
small_airport,Taltheilei Narrows Airport,CA,GSL,-111.5429993,62.59809875,Canada
small_airport,Macmillan Pass Airport,CA,XMP,-130.2019959,63.18109894,Canada
small_airport,Great Bear Lake Airport,CA,DAS,-119.7070007,66.70310211,Canada
small_airport,Fort Mackay / Firebag,CA,YFI,-110.976666,57.275833,Canada
small_airport,Wekweètì Airport,CA,YFJ,-114.077002,64.190804,Canada
small_airport,Donnelly Airport,CA,YOE,-117.094002,55.7094,Canada
small_airport,Cheadle Airport,CA,TIL,-113.6240005,51.05749893,Canada
small_airport,Okoyo Airport,CG,OKG,15.07330036,-1.448330045,Congo
seaplane_base,Craig Seaplane Base,US,CGA,-133.147995,55.47880173,United States
small_airport,Cape Gloucester Airport,PG,CGC,148.432417,-5.458965,Papua New Guinea
small_airport,Casiguran Airport,PH,CGG,122.0651,16.1941,Philippines
small_airport,Gahcho Kue,CA,GHK,-109.144812,63.435198,Canada
closed,Chinguetti Airport,MR,CGT,-12.3978,20.5055,Mauritania
small_airport,Circle Hot Springs Airport,US,CHP,-144.6109924,65.48549652,United States
seaplane_base,Chomley Seaplane Base,US,CIV,-132.21,55.217,United States
small_airport,Laurie River Airport,CA,LRQ,-101.3040009,56.24860001,Canada
small_airport,Hatchet Lake Airport,CA,YDJ,-103.538002,58.66249847,Canada
small_airport,Kasba Lake Airport,CA,YDU,-102.5019989,60.29190063,Canada
seaplane_base,Fort Reliance Seaplane Base,CA,YFL,-109.167,62.7,Canada
small_airport,Cluff Lake Airport,CA,XCL,-109.5159988,58.39110184,Canada
small_airport,Knee Lake Airport,CA,YKE,-94.798103,54.915298,Canada
small_airport,Summer Beaver Airport,CA,SUR,-88.54190063,52.70859909,Canada
small_airport,Crooked Creek Airport,US,CKD,-158.1349945,61.86790085,United States
small_airport,Tisdale Airport,CA,YTT,-104.0670013,52.83670044,Canada
small_airport,Wapekeka Airport,CA,YAX,-89.57939911,53.8492012,Canada
small_airport,Wunnumin Lake Airport,CA,WNN,-89.28919983,52.89390182,Canada
small_airport,Opapimiskan Lake Airport,CA,YBS,-90.37689972,52.6067009,Canada
small_airport,North Spirit Lake Airport,CA,YNO,-92.97109985,52.49000168,Canada
small_airport,Crane Island Airstrip,US,CKR,-122.9979,48.5978,United States
small_airport,Cordova Municipal Airport,US,CKU,-145.727005,60.54389954,United States
small_airport,North of Sixty Airport,CA,YDW,-103.1289978,60.31639862,Canada
small_airport,Chicken Airport,US,CKX,-141.9519959,64.07129669,United States
closed,Clear Lake Metroport,US,CLC,-95.1383,29.5555,United States
closed,Coalinga Airport,US,CLG,-120.360117,36.15804334,United States
small_airport,New Cametá Airport,BR,CMT,-49.56,-2.2468,Brazil
small_airport,Caia Airport,MZ,CMZ,35.3341,-17.8331,Mozambique
small_airport,Tangshan Sannühe Airport,CN,TVS,118.0026245,39.71780014,China
medium_airport,Yinchuan Hedong International Airport,CN,INC,106.393214,38.322758,China
medium_airport,Duplicate --Yantai Penglai International Airport,CN,YNT,120.9872,37.65722,China
medium_airport,Yuanmou Air Base,CN,YUA,101.8820038,25.73749924,China
medium_airport,Zhangjiakou Ningyuan Airport,CN,ZQZ,114.9300003,40.73860168,China
medium_airport,Baoshan Yunduan Airport,CN,BSD,99.168297,25.053301,China
small_airport,Dazu Air Base,CN,DZU,105.773621,29.636227,China
medium_airport,Lintsang Airfield,CN,LNJ,100.0250015,23.73810005,China
medium_airport,Shigatse Air Base,CN,RKZ,89.311401,29.3519,China
medium_airport,Bao'anying Airport,CN,PZI,101.79852,26.54,China
small_airport,Zigong Airport,CN,ZKL,104.625789,29.376484,China
medium_airport,Foshan Shadi Airport,CN,FUO,113.0699997,23.08329964,China
small_airport,Bazhong Enyang Airport,CN,BZX,106.644872,31.73842,China
medium_airport,Xinyang Minggang Airport,CN,XAI,114.079141,32.540819,China
medium_airport,Huizhou Airport,CN,HUZ,114.5999985,23.04999924,China
medium_airport,Shaoguan Guitou Airport,CN,HSC,113.4209976,24.97859955,China
medium_airport,Jinggangshan Airport,CN,JGS,114.7369995,26.85689926,China
medium_airport,Baise Youjiang Airport,CN,AEB,106.9599991,23.72060013,China
medium_airport,Dongying Shengli Airport,CN,DOY,118.788002,37.50859833,China
medium_airport,Xingcheng Air Base,CN,XEN,120.697998,40.58029938,China
medium_airport,Altay Air Base,CN,AAT,88.0858078,47.74988556,China
medium_airport,Tianshui Maijishan Airport,CN,THQ,105.8600006,34.55939865,China
medium_airport,Zhangye Ganzhou Airport,CN,YZY,100.6750031,38.80189896,China
medium_airport,Dandong Airport,CN,DDG,124.286003,40.0247,China
small_airport,Nantong Airport,CN,NTG,120.9759979,32.07080078,China
small_airport,Bearskin Lake Airport,CA,XBE,-91.02719879,53.96559906,Canada
small_airport,Natuashish Airport,CA,YNP,-61.184399,55.913898,Canada
seaplane_base,White River Seaplane Base,CA,YWR,-85.223297,48.6269,Canada
small_airport,Parry Sound Area Municipal Airport,CA,YPD,-79.829697,45.2575,Canada
small_airport,Brockville - Thousand Islands Regional Tackaberry Airport,CA,XBR,-75.75029755,44.63940048,Canada
small_airport,Kingfisher Lake Airport,CA,KIF,-89.8553009,53.01250076,Canada
small_airport,Ogoki Post Airport,CA,YOG,-85.90170288,51.65859985,Canada
heliport,Proma Heliport,CO,PRM,-74.084444,4.728056,Colombia
small_airport,El Troncal Airport,CO,ARQ,-71.388901,7.02106,Colombia
small_airport,La Chorrera Airport,CO,LCR,-73.01667,-0.733333,Colombia
small_airport,Las Cruces Airport,CO,SNT,-73.505402,7.38322,Colombia
small_airport,Tarapacá Airport,CO,TCD,-69.747222,-2.894722,Colombia
small_airport,Bar River Airport,CA,YEB,-84.09220123,46.42029953,Canada
small_airport,Cape Orford Airport,PG,CPI,152.0819444,-5.448333333,Papua New Guinea
seaplane_base,Parry Sound/Frying Pan Island-Sans Souci Seaplane Base,CA,YSI,-80.137497,45.173302,Canada
small_airport,Poplar Hill Airport,CA,YHP,-94.2556,52.1133,Canada
small_airport,Keewaywin Airport,CA,KEW,-92.83640289,52.99110031,Canada
small_airport,Sable Island Landing Strip,CA,YSA,-59.960289,43.930292,Canada
small_airport,Lebel-sur-Quevillon Airport,CA,YLS,-77.01719666,49.03030014,Canada
small_airport,Snap Lake Airport,CA,YNX,-110.905998,63.593601,Canada
small_airport,La Sarre Airport,CA,SSQ,-79.1785965,48.91719818,Canada
small_airport,Chisasibi Airport,CA,YKU,-78.91690063,53.80559921,Canada
heliport,Rentschler Heliport,US,EHT,-72.6253,41.7517,United States
small_airport,Tête-à-la-Baleine Airport,CA,ZTB,-59.38359833,50.67440033,Canada
small_airport,Kegaska Airport,CA,ZKG,-61.26580048,50.19580078,Canada
seaplane_base,Chute-Des-Passes/Lac Margane Seaplane Base,CA,YWQ,-71.138,49.9434,Canada
small_airport,Donaldson Airport,CA,YAU,-73.3214035,61.66220093,Canada
seaplane_base,Ottawa / Rockcliffe Seaplane Base,CA,TR7,-75.64254284,45.46383295,Canada
small_airport,La Romaine Airport,CA,ZGS,-60.679401,50.259701,Canada
small_airport,Fontanges Airport,CA,YFG,-71.1733017,54.55390167,Canada
closed,Lac Gagnon Seaplane Base,CA,YGA,-75.11530304,46.11750031,Canada
small_airport,La Tabatière Airport,CA,ZLT,-58.9756012,50.8307991,Canada
small_airport,Preston Airport,CU,PST,-75.65830231,20.73500061,Cuba
small_airport,Culion Airport,PH,CUJ,119.9378,11.8553,Philippines
small_airport,Hollister Municipal Airport,US,HLI,-121.4100037,36.8932991,United States
small_airport,Cape Vogel Airport,PG,CVL,150.0197222,-9.67,Papua New Guinea
closed,Hughes Airport,US,CVR,-118.417,33.975,United States
small_airport,Chitina Airport,US,CXC,-144.427002,61.582901,United States
medium_airport,Lefkoniko Airport,CY,GEC,33.724358,35.235947,Cyprus
closed,Nicosia International Airport,CY,NIC,33.27870178,35.1507988,Cyprus
small_airport,Arctic Bay Airport,CA,YAB,-85.04250526,73.00576682,Canada
medium_airport,Cat Lake Airport,CA,YAC,-91.82440186,51.72719955,Canada
small_airport,La Grande-3 Airport,CA,YAR,-76.1964035,53.57170105,Canada
medium_airport,Fort Frances Municipal Airport,CA,YAG,-93.43969727,48.65420151,Canada
medium_airport,La Grande-4 Airport,CA,YAH,-73.6753006,53.75469971,Canada
medium_airport,Alert Bay Airport,CA,YAL,-126.9160004,50.5821991,Canada
medium_airport,Sault Ste Marie Airport,CA,YAM,-84.509399,46.485001,Canada
medium_airport,Kasabonika Airport,CA,XKS,-88.64279938,53.52470016,Canada
medium_airport,Kangirsuk Airport,CA,YKG,-69.99919891,60.02719879,Canada
medium_airport,Attawapiskat Airport,CA,YAT,-82.43190002,52.92750168,Canada
medium_airport,St. Anthony Airport,CA,YAY,-56.08309937,51.39189911,Canada
medium_airport,Tofino / Long Beach Airport,CA,YAZ,-125.775583,49.079833,Canada
small_airport,Banff Airport,CA,YBA,-115.5418611,51.20734047,Canada
medium_airport,Kugaaruk Airport,CA,YBB,-89.808098,68.534401,Canada
medium_airport,Baie Comeau Airport,CA,YBC,-68.204399,49.1325,Canada
medium_airport,Bella Coola Airport,CA,QBC,-126.596001,52.387501,Canada
medium_airport,Uranium City Airport,CA,YBE,-108.4810028,59.56140137,Canada
medium_airport,Bonnyville Airport,CA,YBY,-110.744003,54.304199,Canada
medium_airport,CFB Bagotville,CA,YBG,-70.99639893,48.33060074,Canada
medium_airport,Baker Lake Airport,CA,YBK,-96.07779694,64.29889679,Canada
medium_airport,Campbell River Airport,CA,YBL,-125.271004,49.950802,Canada
medium_airport,Tadoule Lake Airport,CA,XTL,-98.512199,58.7061,Canada
medium_airport,Brandon Municipal Airport,CA,YBR,-99.951897,49.91,Canada
medium_airport,Brochet Airport,CA,YBT,-101.679001,57.8894,Canada
medium_airport,Berens River Airport,CA,YBV,-97.018303,52.358898,Canada
medium_airport,Lourdes de Blanc Sablon Airport,CA,YBX,-57.18529892,51.4435997,Canada
medium_airport,Cartwright Airport,CA,YRF,-57.04190063,53.68280029,Canada
medium_airport,Cambridge Bay Airport,CA,YCB,-105.1380005,69.10810089,Canada
medium_airport,Cornwall Regional Airport,CA,YCC,-74.56330109,45.09280014,Canada
medium_airport,Nanaimo Airport,CA,YCD,-123.8698626,49.05497022,Canada
medium_airport,Centralia / James T. Field Memorial Aerodrome,CA,YCE,-81.508301,43.285599,Canada
medium_airport,Castlegar/West Kootenay Regional Airport,CA,YCG,-117.6320038,49.29639816,Canada
medium_airport,Miramichi Airport,CA,YCH,-65.449203,47.007801,Canada
small_airport,Chatham Kent Airport,CA,XCM,-82.08190155,42.3064003,Canada
medium_airport,Charlo Airport,CA,YCL,-66.330299,47.990799,Canada
medium_airport,Cochrane Airport,CA,YCN,-81.01360321,49.10559845,Canada
medium_airport,Kugluktuk Airport,CA,YCO,-115.143997,67.816704,Canada
medium_airport,Chetwynd Airport,CA,YCQ,-121.6269989,55.68719864,Canada
medium_airport,Cross Lake (Charlie Sinclair Memorial) Airport,CA,YCR,-97.76080322,54.61059952,Canada
medium_airport,Chesterfield Inlet Airport,CA,YCS,-90.73110199,63.34690094,Canada
small_airport,Coronation Airport,CA,YCT,-111.4449997,52.07500076,Canada
closed,Cartierville Airport,CA,YCV,-73.71669769,45.51670074,Canada
small_airport,Chilliwack Airport,CA,YCW,-121.939003,49.15280151,Canada
medium_airport,Clyde River Airport,CA,YCY,-68.51670074,70.48609924,Canada
small_airport,Fairmont Hot Springs Airport,CA,YCZ,-115.8730011,50.33029938,Canada
medium_airport,Dawson City Airport,CA,YDA,-139.128006,64.04309845,Canada
medium_airport,Burwash Airport,CA,YDB,-139.0410004,61.37110138,Canada
medium_airport,Deer Lake Airport,CA,YDF,-57.39139938,49.21080017,Canada
small_airport,Dease Lake Airport,CA,YDL,-130.0319977,58.42219925,Canada
medium_airport,Ross River Airport,CA,XRR,-132.4230042,61.97060013,Canada
medium_airport,Dauphin Barker Airport,CA,YDN,-100.052002,51.10079956,Canada
medium_airport,Dolbeau St Felicien Airport,CA,YDO,-72.375,48.7784996,Canada
medium_airport,Nain Airport,CA,YDP,-61.68030167,56.54919815,Canada
medium_airport,Dawson Creek Airport,CA,YDQ,-120.1829987,55.74229813,Canada
large_airport,Edmonton International Airport,CA,YEG,-113.5800018,53.30970001,Canada
medium_airport,Arviat Airport,CA,YEK,-94.07080078,61.09420013,Canada
medium_airport,Elliot Lake Municipal Airport,CA,YEL,-82.56140137,46.35139847,Canada
medium_airport,Manitoulin East Municipal Airport,CA,YEM,-81.85810089,45.84280014,Canada
medium_airport,Estevan Airport,CA,YEN,-102.9660034,49.21030045,Canada
medium_airport,Fort Severn Airport,CA,YER,-87.67610168,56.01890182,Canada
medium_airport,Edson Airport,CA,YET,-116.4649963,53.57889938,Canada
small_airport,Eureka Airport,CA,YEU,-85.81420136,79.99469757,Canada
medium_airport,Inuvik Mike Zubko Airport,CA,YEV,-133.4830017,68.30419922,Canada
medium_airport,Amos/Magny Airport,CA,YEY,-78.249702,48.563903,Canada
medium_airport,Fort Albany Airport,CA,YFA,-81.69689941,52.20140076,Canada
medium_airport,Iqaluit Airport,CA,YFB,-68.555801,63.756402,Canada
medium_airport,Fredericton Airport,CA,YFC,-66.53720093,45.8689003,Canada
medium_airport,Forestville Airport,CA,YFE,-69.09719849,48.74610138,Canada
medium_airport,Fort Hope Airport,CA,YFH,-87.90779877,51.56190109,Canada
medium_airport,La Macaza / Mont-Tremblant International Inc Airport,CA,YTM,-74.779999,46.409401,Canada
medium_airport,Flin Flon Airport,CA,YFO,-101.6819992,54.67810059,Canada
medium_airport,Fort Resolution Airport,CA,YFR,-113.6900024,61.18080139,Canada
medium_airport,Fort Simpson Airport,CA,YFS,-121.2369995,61.7602005,Canada
medium_airport,Makkovik Airport,CA,YMN,-59.18640137,55.07690048,Canada
medium_airport,Texada Gillies Bay Airport,CA,YGB,-124.5179977,49.69419861,Canada
medium_airport,Fort Good Hope Airport,CA,YGH,-128.651001,66.24079895,Canada
medium_airport,Kingston Norman Rogers Airport,CA,YGK,-76.59690094,44.22529984,Canada
medium_airport,La Grande Rivière Airport,CA,YGL,-77.70420074,53.62530136,Canada
medium_airport,Gimli Industrial Park Airport,CA,YGM,-97.04329681,50.62810135,Canada
medium_airport,Gods Lake Narrows Airport,CA,YGO,-94.49140167,54.55889893,Canada
medium_airport,Gaspé (Michel-Pouliot) Airport,CA,YGP,-64.47859955,48.77529907,Canada
medium_airport,Geraldton Greenstone Regional Airport,CA,YGQ,-86.93939972,49.77830124,Canada
medium_airport,Îles-de-la-Madeleine Airport,CA,YGR,-61.77809906,47.42470169,Canada
medium_airport,Igloolik Airport,CA,YGT,-81.81610107,69.36470032,Canada
medium_airport,Havre St Pierre Airport,CA,YGV,-63.6114006,50.2818985,Canada
medium_airport,Kuujjuarapik Airport,CA,YGW,-77.76529694,55.2818985,Canada
medium_airport,Gillam Airport,CA,YGX,-94.71060181,56.35749817,Canada
medium_airport,Grise Fiord Airport,CA,YGZ,-82.90920258,76.42610168,Canada
medium_airport,Quaqtaq Airport,CA,YQC,-69.61779785,61.04639816,Canada
small_airport,Hudson Bay Airport,CA,YHB,-102.310997,52.81669998,Canada
seaplane_base,Vancouver Harbour Water Aerodrome,CA,CXH,-123.1110001,49.29439926,Canada
medium_airport,Dryden Regional Airport,CA,YHD,-92.744202,49.831699,Canada
medium_airport,Hope Airport,CA,YHE,-121.4980011,49.36830139,Canada
medium_airport,Hearst René Fontaine Municipal Airport,CA,YHF,-83.68609619,49.71419907,Canada
medium_airport,Nemiscau Airport,CA,YNS,-76.13559723,51.69110107,Canada
medium_airport,Ulukhaktok Holman Airport,CA,YHI,-117.8059998,70.76280212,Canada
medium_airport,Gjoa Haven Airport,CA,YHK,-95.84970093,68.63559723,Canada
medium_airport,John C. Munro Hamilton International Airport,CA,YHM,-79.93499756,43.17359924,Canada
medium_airport,Hornepayne Municipal Airport,CA,YHN,-84.7589035,49.19309998,Canada
medium_airport,Hopedale Airport,CA,YHO,-60.22859955,55.44829941,Canada
medium_airport,Chevery Airport,CA,YHR,-59.63669968,50.46889877,Canada
medium_airport,Haines Junction Airport,CA,YHT,-137.5460052,60.78919983,Canada
medium_airport,Montréal / Saint-Hubert Airport,CA,YHU,-73.41690063,45.51750183,Canada
medium_airport,Hay River / Merlyn Carter Airport,CA,YHY,-115.7829971,60.83969879,Canada
large_airport,Halifax / Stanfield International Airport,CA,YHZ,-63.50859833,44.88079834,Canada
medium_airport,Atikokan Municipal Airport,CA,YIB,-91.63860321,48.77389908,Canada
medium_airport,Digby / Annapolis Regional Airport,CA,YDG,-65.78542471,44.54584504,Canada
medium_airport,St Augustin Airport,CA,YIF,-58.65829849,51.21170044,Canada
medium_airport,Ivujivik Airport,CA,YIK,-77.9253006,62.41730118,Canada
medium_airport,Pond Inlet Airport,CA,YIO,-77.96669769,72.6832962,Canada
medium_airport,Island Lake Airport,CA,YIV,-94.6536026,53.85720062,Canada
small_airport,Jasper Airport,CA,YJA,-118.058998,52.9967,Canada
medium_airport,Fort Liard Airport,CA,YJF,-123.4690018,60.2358017,Canada
medium_airport,St Jean Airport,CA,YJN,-73.28109741,45.29439926,Canada
medium_airport,Stephenville Airport,CA,YJT,-58.54999924,48.5442009,Canada
medium_airport,Kamloops Airport,CA,YKA,-120.4440002,50.70220184,Canada
small_airport,Collins Bay Airport,CA,YKC,-103.6780014,58.23609924,Canada
medium_airport,Aklavik/Freddie Carmichael Airport,CA,LAK,-135.00599,68.223297,Canada
medium_airport,Waterloo Airport,CA,YKF,-80.37860107,43.46080017,Canada
medium_airport,Kangiqsujuaq (Wakeham Bay) Airport,CA,YWB,-71.92939758,61.58860016,Canada
medium_airport,Key Lake Airport,CA,YKJ,-105.6179962,57.2560997,Canada
medium_airport,Schefferville Airport,CA,YKL,-66.80529785,54.80530167,Canada
small_airport,Kincardine Municipal Airport,CA,YKD,-81.606697,44.201401,Canada
medium_airport,Akulivik Airport,CA,AKV,-78.14859772,60.8185997,Canada
medium_airport,Waskaganish Airport,CA,YKQ,-78.75830078,51.47330093,Canada
medium_airport,Kirkland Lake Airport,CA,YKX,-79.98139954,48.21030045,Canada
medium_airport,Kindersley Airport,CA,YKY,-109.1809998,51.51750183,Canada
medium_airport,Buttonville Municipal Airport,CA,YKZ,-79.37000275,43.86220169,Canada
medium_airport,Aupaluk Airport,CA,YPJ,-69.59970093,59.29669952,Canada
small_airport,Lac La Biche Airport,CA,YLB,-112.0319977,54.77030182,Canada
medium_airport,Kimmirut Airport,CA,YLC,-69.88330078,62.84999847,Canada
medium_airport,Chapleau Airport,CA,YLD,-83.34670258,47.81999969,Canada
medium_airport,Lansdowne House Airport,CA,YLH,-87.93419647,52.1955986,Canada
medium_airport,Meadow Lake Airport,CA,YLJ,-108.5230026,54.12530136,Canada
medium_airport,Lutselk'e Airport,CA,YSG,-110.681998,62.418303,Canada
medium_airport,Lloydminster Airport,CA,YLL,-110.072998,53.30920029,Canada
small_airport,La Tuque Airport,CA,YLQ,-72.78890228,47.40969849,Canada
medium_airport,Leaf Rapids Airport,CA,YLR,-99.98529816,56.51330185,Canada
small_airport,Barrie-Orillia (Lake Simcoe Regional Airport),CA,YLK,-79.55560303,44.48529816,Canada
medium_airport,Alert Airport,CA,YLT,-62.2806015,82.51779938,Canada
medium_airport,Kangiqsualujjuaq (Georges River) Airport,CA,XGR,-65.99279785,58.71139908,Canada
medium_airport,Kelowna International Airport,CA,YLW,-119.3779984,49.95610046,Canada
seaplane_base,Chatham Seaplane Base,US,CYM,-134.945999,57.5149,United States
medium_airport,Mayo Airport,CA,YMA,-135.8679962,63.61640167,Canada
medium_airport,Matane Airport,CA,YME,-67.45330048,48.85689926,Canada
medium_airport,Manitouwadge Airport,CA,YMG,-85.86060333,49.08390045,Canada
medium_airport,Mary's Harbour Airport,CA,YMH,-55.84719849,52.30279922,Canada
medium_airport,Moose Jaw Air Vice Marshal C. M. McEwen Airport,CA,YMJ,-105.5589981,50.33029938,Canada
medium_airport,Charlevoix Airport,CA,YML,-70.22389984,47.59749985,Canada
medium_airport,Fort McMurray Airport,CA,YMM,-111.2220001,56.65330124,Canada
medium_airport,Moosonee Airport,CA,YMO,-80.60780334,51.29109955,Canada
medium_airport,Chapais Airport,CA,YMT,-74.52809906,49.77190018,Canada
medium_airport,Umiujaq Airport,CA,YUD,-76.51830292,56.53609848,Canada
small_airport,Maniwaki Airport,CA,YMW,-75.99060059,46.27280045,Canada
medium_airport,Montreal International (Mirabel) Airport,CA,YMX,-74.038696,45.679501,Canada
medium_airport,Natashquan Airport,CA,YNA,-61.78919983,50.18999863,Canada
medium_airport,Wemindji Airport,CA,YNC,-78.83110046,53.01060104,Canada
medium_airport,Ottawa / Gatineau Airport,CA,YND,-75.563599,45.521702,Canada
medium_airport,Norway House Airport,CA,YNE,-97.84420013,53.95830154,Canada
small_airport,Hudsons Hope Airport,CA,YNH,-121.9759979,56.03559875,Canada
small_airport,Langley Airport,CA,YLY,-122.6309967,49.10079956,Canada
medium_airport,Points North Landing Airport,CA,YNL,-104.0820007,58.27669907,Canada
medium_airport,Matagami Airport,CA,YNM,-77.80280304,49.76169968,Canada
small_airport,Fort Mackay / Horizon Airport,CA,HZP,-111.7009964,57.38169861,Canada
medium_airport,Ekati Airport,CA,YOA,-110.6149979,64.69889832,Canada
medium_airport,Old Crow Airport,CA,YOC,-139.8390045,67.57060242,Canada
medium_airport,CFB Cold Lake,CA,YOD,-110.2789993,54.40499878,Canada
medium_airport,Oxford House Airport,CA,YOH,-95.27890015,54.93330002,Canada
medium_airport,High Level Airport,CA,YOJ,-117.1650009,58.62139893,Canada
medium_airport,Toronto/Oshawa Executive Airport,CA,YOO,-78.894997,43.922798,Canada
medium_airport,Rainbow Lake Airport,CA,YOP,-119.4079971,58.49140167,Canada
medium_airport,Owen Sound / Billy Bishop Regional Airport,CA,YOS,-80.83750153,44.59030151,Canada
large_airport,Ottawa Macdonald-Cartier International Airport,CA,YOW,-75.66919708,45.32249832,Canada
heliport,C J.H.L.(Joe) Lecomte) Heliport,CA,YOY,-71.50219917,46.90219617,Canada
medium_airport,Prince Albert Glass Field,CA,YPA,-105.6729965,53.21419907,Canada
medium_airport,Paulatuk (Nora Aliqatchialuk Ruben) Airport,CA,YPC,-124.07547,69.36083812,Canada
medium_airport,Port Hawkesbury Airport,CA,YPS,-61.36809921,45.65670013,Canada
medium_airport,Peace River Airport,CA,YPE,-117.446999,56.226898,Canada
medium_airport,Portage-la-Prairie / Southport Airport,CA,YPG,-98.273817,49.903099,Canada
medium_airport,Inukjuak Airport,CA,YPH,-78.07689667,58.47190094,Canada
medium_airport,Pickle Lake Airport,CA,YPL,-90.21420288,51.44639969,Canada
medium_airport,Pikangikum Airport,CA,YPM,-93.97329712,51.81969833,Canada
medium_airport,Port Menier Airport,CA,YPN,-64.28859711,49.83639908,Canada
medium_airport,Peawanuck Airport,CA,YPO,-85.44329834,54.98809814,Canada
medium_airport,Peterborough Airport,CA,YPQ,-78.36329651,44.22999954,Canada
medium_airport,Prince Rupert Airport,CA,YPR,-130.4450073,54.28609848,Canada
medium_airport,Powell River Airport,CA,YPW,-124.5,49.83420181,Canada
medium_airport,Puvirnituq Airport,CA,YPX,-77.28690338,60.05059814,Canada
medium_airport,Fort Chipewyan Airport,CA,YPY,-111.1169968,58.76720047,Canada
small_airport,Burns Lake Airport,CA,YPZ,-125.9509964,54.37639999,Canada
medium_airport,Muskoka Airport,CA,YQA,-79.30329895,44.97470093,Canada
medium_airport,Quebec Jean Lesage International Airport,CA,YQB,-71.393303,46.7911,Canada
medium_airport,The Pas Airport,CA,YQD,-101.0910034,53.97140121,Canada
medium_airport,Red Deer Regional Airport,CA,YQF,-113.8939972,52.18220139,Canada
medium_airport,Windsor Airport,CA,YQG,-82.95559692,42.27560043,Canada
medium_airport,Watson Lake Airport,CA,YQH,-128.8220062,60.11640167,Canada
medium_airport,Yarmouth Airport,CA,YQI,-66.08809662,43.82690048,Canada
medium_airport,Kenora Airport,CA,YQK,-94.36309814,49.78829956,Canada
medium_airport,Lethbridge County Airport,CA,YQL,-112.8000031,49.63029861,Canada
medium_airport,Greater Moncton Roméo LeBlanc International Airport,CA,YQM,-64.678596,46.112202,Canada
medium_airport,Nakina Airport,CA,YQN,-86.6964035,50.18280029,Canada
medium_airport,Comox Airport,CA,YQQ,-124.887001,49.71080017,Canada
medium_airport,Regina International Airport,CA,YQR,-104.6660004,50.43190002,Canada
medium_airport,St Thomas Municipal Airport,CA,YQS,-81.1108017,42.77000046,Canada
medium_airport,Thunder Bay Airport,CA,YQT,-89.32389832,48.37189865,Canada
medium_airport,Grande Prairie Airport,CA,YQU,-118.8850021,55.17969894,Canada
medium_airport,Yorkton Municipal Airport,CA,YQV,-102.461998,51.26470184,Canada
medium_airport,North Battleford Airport,CA,YQW,-108.2440033,52.76919937,Canada
medium_airport,Gander International Airport,CA,YQX,-54.56809998,48.93690109,Canada
medium_airport,Sydney / J.A. Douglas McCurdy Airport,CA,YQY,-60.047798,46.1614,Canada
medium_airport,Quesnel Airport,CA,YQZ,-122.5100021,53.02610016,Canada
medium_airport,Rae Lakes Airport,CA,YRA,-117.3099976,64.1160965,Canada
medium_airport,Resolute Bay Airport,CA,YRB,-94.9693985,74.71690369,Canada
medium_airport,Rivière-du-Loup Airport,CA,YRI,-69.58470154,47.76440048,Canada
medium_airport,Roberval Airport,CA,YRJ,-72.26560211,48.52000046,Canada
medium_airport,Red Lake Airport,CA,YRL,-93.79309845,51.06689835,Canada
small_airport,Rocky Mountain House Airport,CA,YRM,-114.9039993,52.42969894,Canada
medium_airport,Ottawa / Rockcliffe Airport,CA,YRO,-75.64610291,45.46030045,Canada
medium_airport,Trois-Rivières Airport,CA,YRQ,-72.67939758,46.35279846,Canada
medium_airport,Red Sucker Lake Airport,CA,YRS,-93.55719757,54.16719818,Canada
medium_airport,Rankin Inlet Airport,CA,YRT,-92.11579895,62.81140137,Canada
medium_airport,Revelstoke Airport,CA,YRV,-118.1829987,50.96670151,Canada
medium_airport,Sudbury Airport,CA,YSB,-80.79889679,46.625,Canada
medium_airport,Sherbrooke Airport,CA,YSC,-71.69139862,45.43859863,Canada
heliport,Suffield Heliport,CA,YSD,-111.1829987,50.26670074,Canada
small_airport,Squamish Airport,CA,YSE,-123.1620026,49.78170013,Canada
medium_airport,Stony Rapids Airport,CA,YSF,-105.8410034,59.25030136,Canada
medium_airport,Smiths Falls-Montague (Russ Beach) Airport,CA,YSH,-75.94059753,44.94580078,Canada
medium_airport,Saint John Airport,CA,YSJ,-65.89029694,45.31610107,Canada
medium_airport,Sanikiluaq Airport,CA,YSK,-79.24669647,56.53779984,Canada
medium_airport,St Leonard Airport,CA,YSL,-67.83470154,47.15750122,Canada
medium_airport,Fort Smith Airport,CA,YSM,-111.961998,60.02030182,Canada
medium_airport,Niagara District Airport,CA,YCM,-79.17169952,43.19169998,Canada
medium_airport,Marathon Airport,CA,YSP,-86.3443985,48.75529861,Canada
medium_airport,St. Theresa Point Airport,CA,YST,-94.85189819,53.84560013,Canada
medium_airport,Summerside Airport,CA,YSU,-63.83359909,46.44060135,Canada
medium_airport,Sachs Harbour (David Nasogaluak Jr. Saaryuaq) Airport,CA,YSY,-125.2429962,71.99389648,Canada
medium_airport,Pembroke Airport,CA,YTA,-77.25170135,45.86439896,Canada
medium_airport,Cape Dorset Airport,CA,YTE,-76.52670288,64.23000336,Canada
medium_airport,Alma Airport,CA,YTF,-71.64189911,48.50889969,Canada
medium_airport,Thompson Airport,CA,YTH,-97.86419678,55.80110168,Canada
medium_airport,Big Trout Lake Airport,CA,YTL,-89.89689636,53.81779861,Canada
medium_airport,Tasiujaq Airport,CA,YTQ,-69.95580292,58.6678009,Canada
medium_airport,CFB Trenton,CA,YTR,-77.52809906,44.1189003,Canada
medium_airport,Timmins/Victor M. Power,CA,YTS,-81.37670136,48.56969833,Canada
medium_airport,Billy Bishop Toronto City Centre Airport,CA,YTZ,-79.396202,43.627499,Canada
medium_airport,Tuktoyaktuk Airport,CA,YUB,-133.026001,69.4332962,Canada
large_airport,Montreal / Pierre Elliott Trudeau International Airport,CA,YUL,-73.74079895,45.47060013,Canada
medium_airport,Naujaat Airport,CA,YUT,-86.224701,66.5214,Canada
medium_airport,Hall Beach Airport,CA,YUX,-81.2425,68.77610016,Canada
medium_airport,Rouyn Noranda Airport,CA,YUY,-78.83560181,48.20610046,Canada
medium_airport,Bonaventure Airport,CA,YVB,-65.46029663,48.07109833,Canada
medium_airport,La Ronge Airport,CA,YVC,-105.262001,55.15140152,Canada
small_airport,Vermilion Airport,CA,YVG,-110.8239975,53.35580063,Canada
medium_airport,Vernon Airport,CA,YVE,-119.3310013,50.24810028,Canada
small_airport,Tommy Kochon Airport,CA,YCK,-126.126,67.02,Canada
medium_airport,Qikiqtarjuaq Airport,CA,YVM,-64.03140259,67.54579926,Canada
medium_airport,Val-d'Or Airport,CA,YVO,-77.78279877,48.05329895,Canada
medium_airport,Kuujjuaq Airport,CA,YVP,-68.42690277,58.09609985,Canada
medium_airport,Norman Wells Airport,CA,YVQ,-126.7979965,65.28160095,Canada
large_airport,Vancouver International Airport,CA,YVR,-123.1839981,49.19390106,Canada
small_airport,Buffalo Narrows Airport,CA,YVT,-108.4179993,55.84189987,Canada
medium_airport,Wiarton Airport,CA,YVV,-81.107201,44.7458,Canada
medium_airport,Deer Lake Airport,CA,YVZ,-94.06140137,52.65579987,Canada
medium_airport,Petawawa Airport,CA,YWA,-77.31919861,45.95220184,Canada
large_airport,Winnipeg / James Armstrong Richardson International Airport,CA,YWG,-97.23989868,49.90999985,Canada
seaplane_base,Victoria Harbour Seaplane Base,CA,YWH,-123.3888674,48.42498589,Canada
medium_airport,Déline Airport,CA,YWJ,-123.435997,65.21109772,Canada
medium_airport,Wabush Airport,CA,YWK,-66.86440277,52.9219017,Canada
medium_airport,Williams Lake Airport,CA,YWL,-122.0540009,52.18310165,Canada
medium_airport,Webequie Airport,CA,YWP,-87.37486839,52.9593934,Canada
medium_airport,Wrigley Airport,CA,YWY,-123.4369965,63.20940018,Canada
medium_airport,Cranbrook/Canadian Rockies International Airport,CA,YXC,-115.7819977,49.6108017,Canada
closed,Edmonton City Centre (Blatchford Field) Airport,CA,YXD,-113.5210037,53.57249832,Canada
medium_airport,Saskatoon John G. Diefenbaker International Airport,CA,YXE,-106.6999969,52.17079926,Canada
medium_airport,Medicine Hat Airport,CA,YXH,-110.7210007,50.01890182,Canada
closed,Bonnechere Airport,CA,YXI,-77.60279846,45.6631012,Canada
medium_airport,Fort St John Airport,CA,YXJ,-120.739998,56.238098,Canada
medium_airport,Rimouski Airport,CA,YXK,-68.49690247,48.47809982,Canada
medium_airport,Sioux Lookout Airport,CA,YXL,-91.90529633,50.11389923,Canada
medium_airport,Whale Cove Airport,CA,YXN,-92.59809875,62.24000168,Canada
medium_airport,Pangnirtung Airport,CA,YXP,-65.71360016,66.14499664,Canada
medium_airport,Beaver Creek Airport,CA,YXQ,-140.8670044,62.41030121,Canada
medium_airport,Earlton (Timiskaming Regional) Airport,CA,YXR,-79.84734535,47.69740065,Canada
medium_airport,Prince George Airport,CA,YXS,-122.6790009,53.88940048,Canada
medium_airport,Northwest Regional Airport Terrace-Kitimat,CA,YXT,-128.576009,54.468498,Canada
medium_airport,London Airport,CA,YXU,-81.1539,43.035599,Canada
medium_airport,Abbotsford Airport,CA,YXX,-122.3610001,49.02529907,Canada
medium_airport,Whitehorse / Erik Nielsen International Airport,CA,YXY,-135.0670013,60.70959854,Canada
medium_airport,Wawa Airport,CA,YXZ,-84.78669739,47.96670151,Canada
medium_airport,North Bay Jack Garland Airport,CA,YYB,-79.422798,46.363602,Canada
large_airport,Calgary International Airport,CA,YYC,-114.0199966,51.11389923,Canada
medium_airport,Smithers Airport,CA,YYD,-127.1829987,54.8246994,Canada
medium_airport,Fort Nelson Airport,CA,YYE,-122.5970001,58.83639908,Canada
medium_airport,Penticton Airport,CA,YYF,-119.6019974,49.46310043,Canada
medium_airport,Charlottetown Airport,CA,YYG,-63.12110138,46.29000092,Canada
medium_airport,Taloyoak Airport,CA,YYH,-93.576698,69.5467,Canada
large_airport,Victoria International Airport,CA,YYJ,-123.4260025,48.64690018,Canada
medium_airport,Lynn Lake Airport,CA,YYL,-101.0759964,56.86389923,Canada
small_airport,Cowley Airport,CA,YYM,-114.0940018,49.63639832,Canada
medium_airport,Swift Current Airport,CA,YYN,-107.6910019,50.29190063,Canada
medium_airport,Churchill Airport,CA,YYQ,-94.06500244,58.73920059,Canada
medium_airport,Goose Bay Airport,CA,YYR,-60.42580032,53.31919861,Canada
large_airport,St. John's International Airport,CA,YYT,-52.75189972,47.61859894,Canada
medium_airport,Kapuskasing Airport,CA,YYU,-82.46749878,49.41389847,Canada
medium_airport,Armstrong Airport,CA,YYW,-88.90969849,50.29029846,Canada
medium_airport,Mont Joli Airport,CA,YYY,-68.20809937,48.60860062,Canada
large_airport,Lester B. Pearson International Airport,CA,YYZ,-79.63059998,43.67720032,Canada
medium_airport,Gore Bay Manitoulin Airport,CA,YZE,-82.56780243,45.88529968,Canada
medium_airport,Yellowknife Airport,CA,YZF,-114.4400024,62.46279907,Canada
medium_airport,Salluit Airport,CA,YZG,-75.66719818,62.1794014,Canada
medium_airport,Slave Lake Airport,CA,YZH,-114.7770004,55.29309845,Canada
medium_airport,Sandspit Airport,CA,YZP,-131.8139954,53.25429916,Canada
medium_airport,Chris Hadfield Airport,CA,YZR,-82.30889893,42.99940109,Canada
medium_airport,Coral Harbour Airport,CA,YZS,-83.35939789,64.19329834,Canada
medium_airport,Port Hardy Airport,CA,YZT,-127.3669968,50.68059921,Canada
medium_airport,Whitecourt Airport,CA,YZU,-115.7870026,54.14390182,Canada
medium_airport,Sept-Îles Airport,CA,YZV,-66.26560211,50.22330093,Canada
medium_airport,Teslin Airport,CA,YZW,-132.7429962,60.17279816,Canada
medium_airport,CFB Greenwood,CA,YZX,-64.91690063,44.9844017,Canada
medium_airport,York Landing Airport,CA,ZAC,-96.08920288,56.08940125,Canada
medium_airport,Shuswap Regional Airport,CA,YSN,-119.228996,50.682802,Canada
medium_airport,Boundary Bay Airport,CA,YDT,-123.012001,49.0742,Canada
medium_airport,Ilford Airport,CA,ILF,-95.61389923,56.06140137,Canada
medium_airport,Bathurst Airport,CA,ZBF,-65.73889923,47.62969971,Canada
medium_airport,Bromont (Roland Desourdy) Airport,CA,ZBM,-72.74140167,45.29079819,Canada
medium_airport,Kelsey Airport,CA,KES,-96.50969696,56.03749847,Canada
medium_airport,Eastmain River Airport,CA,ZEM,-78.52249908,52.22639847,Canada
medium_airport,Faro Airport,CA,ZFA,-133.3760071,62.20750046,Canada
medium_airport,Fond-Du-Lac Airport,CA,ZFD,-107.1819992,59.33440018,Canada
medium_airport,Pukatawagan Airport,CA,XPK,-101.2659988,55.74919891,Canada
medium_airport,Fort Mcpherson Airport,CA,ZFM,-134.8609924,67.40750122,Canada
medium_airport,Tulita Airport,CA,ZFN,-125.572998,64.909697,Canada
medium_airport,Grand Forks Airport,CA,ZGF,-118.4309998,49.0155983,Canada
medium_airport,Gods River Airport,CA,ZGI,-94.07859802,54.83969879,Canada
medium_airport,Little Grand Rapids Airport,CA,ZGR,-95.46579742,52.04560089,Canada
small_airport,High Prairie Airport,CA,ZHP,-116.4749985,55.39360046,Canada
small_airport,Corazón de Jesús Airport,PA,CZJ,-78.5888,9.4446,Panama
medium_airport,Jenpeg Airport,CA,ZJG,-98.0460968,54.51890182,Canada
medium_airport,Swan River Airport,CA,ZJN,-101.2360001,52.12060165,Canada
small_airport,Cascade Locks State Airport,US,CZK,-121.8789978,45.67689896,United States
medium_airport,Kashechewan Airport,CA,ZKE,-81.67780304,52.28250122,Canada
medium_airport,Thicket Portage Airport,CA,YTD,-97.70780182,55.31890106,Canada
medium_airport,Muskrat Dam Airport,CA,MSA,-91.76280212,53.44139862,Canada
small_airport,South Cariboo Region / 108 Mile Airport,CA,ZMH,-121.3330002,51.73609924,Canada
medium_airport,Pikwitonei Airport,CA,PIW,-97.16419983,55.58890152,Canada
medium_airport,Masset Airport,CA,ZMT,-132.125,54.02750015,Canada
small_airport,Chisana Airport,US,CZN,-142.0480042,62.07120132,United States
medium_airport,Poplar River Airport,CA,XPP,-97.27419376,52.99652588,Canada
small_airport,Chistochina Airport,US,CZO,-144.6690063,62.56349945,United States
medium_airport,Sachigo Lake Airport,CA,ZPB,-92.1964035,53.89110184,Canada
medium_airport,Pincher Creek Airport,CA,WPC,-113.9970016,49.52059937,Canada
small_airport,Pinehouse Lake Airport,CA,ZPO,-106.5820007,55.52809906,Canada
medium_airport,Round Lake (Weagamow Lake) Airport,CA,ZRJ,-91.31279755,52.9435997,Canada
medium_airport,Sandy Lake Airport,CA,ZSJ,-93.3443985,53.06420135,Canada
medium_airport,South Indian Lake Airport,CA,XSI,-98.90720367,56.7928009,Canada
medium_airport,Stewart Airport,CA,ZST,-129.9824345,55.93541045,Canada
seaplane_base,Prince Rupert/Seal Cove Seaplane Base,CA,ZSW,-130.2830048,54.33330154,Canada
small_airport,Bloodvein River Airport,CA,YDV,-96.692305,51.784568,Canada
medium_airport,Shamattawa Airport,CA,ZTM,-92.08139801,55.86560059,Canada
medium_airport,Ignace Municipal Airport,CA,ZUC,-91.71779633,49.42969894,Canada
small_airport,Churchill Falls Airport,CA,ZUM,-64.10639954,53.56190109,Canada
medium_airport,Lac Brochet Airport,CA,XLB,-101.4690018,58.61750031,Canada
medium_airport,Wollaston Lake Airport,CA,ZWL,-103.1719971,58.10689926,Canada
small_airport,Canandaigua Airport,US,IUA,-77.325226,42.908902,United States
small_airport,Delta Junction Airport,US,DJN,-145.7169952,64.05039978,United States
small_airport,Mostaganem Airport,DZ,MQV,0.149382994,35.90879822,Algeria
medium_airport,Blida Airport,DZ,QLD,2.814169884,36.50360107,Algeria
medium_airport,Bou Saada Airport,DZ,BUJ,4.206389904,35.33250046,Algeria
medium_airport,Soummam Airport,DZ,BJA,5.069920063,36.7120018,Algeria
large_airport,Houari Boumediene Airport,DZ,ALG,3.215409994,36.69100189,Algeria
medium_airport,Djanet Inedbirene Airport,DZ,DJG,9.45244,24.292801,Algeria
medium_airport,Illizi Takhamalt Airport,DZ,VVZ,8.622650146,26.7234993,Algeria
medium_airport,Ain Arnat Airport,DZ,QSF,5.32449007,36.17810059,Algeria
medium_airport,Aguenar – Hadj Bey Akhamok Airport,DZ,TMR,5.451079845,22.81150055,Algeria
medium_airport,Jijel Ferhat Abbas Airport,DZ,GJL,5.87361002,36.79510117,Algeria
medium_airport,Mecheria Airport,DZ,MZW,-0.242353007,33.53590012,Algeria
medium_airport,Rabah Bitat Airport,DZ,AAE,7.809174,36.822201,Algeria
medium_airport,Mohamed Boudiaf International Airport,DZ,CZL,6.620389938,36.27600098,Algeria
small_airport,Oum el Bouaghi airport,DZ,QMH,7.270800114,35.87969971,Algeria
closed,Skikda Airport,DZ,SKI,6.9516,36.8641,Algeria
medium_airport,Cheikh Larbi Tébessi Airport,DZ,TEE,8.12071991,35.43159866,Algeria
medium_airport,Batna Airport,DZ,BLJ,6.308589935,35.7521019,Algeria
small_airport,Daup Airport,PG,DAF,145.9515,-4.7403,Papua New Guinea
medium_airport,Hassi R'Mel Airport,DZ,HRM,3.311539888,32.93040085,Algeria
small_airport,Tsletsi Airport,DZ,QDJ,3.351,34.6657,Algeria
small_airport,Dabo Airport,PG,DAO,147.8430556,-8.431944444,Papua New Guinea
medium_airport,Bou Chekif Airport,DZ,TID,1.463150024,35.34109879,Algeria
medium_airport,Tindouf Airport,DZ,TIN,-8.167099953,27.7003994,Algeria
medium_airport,Ech Cheliff Airport,DZ,CFK,1.331769943,36.21269989,Algeria
medium_airport,Tafaraoui Airport,DZ,TAF,-0.532278001,35.54240036,Algeria
medium_airport,Zenata – Messali El Hadj Airport,DZ,TLM,-1.450000048,35.01670074,Algeria
medium_airport,Es Senia Airport,DZ,ORN,-0.621182978,35.62390137,Algeria
medium_airport,Béchar Boudghene Ben Ali Lotfi Airport,DZ,CBH,-2.269860029,31.64570045,Algeria
small_airport,Sidi Bel Abbes Airport,DZ,BFW,-0.593275011,35.17179871,Algeria
medium_airport,Ghriss Airport,DZ,MUW,0.147141993,35.20769882,Algeria
small_airport,El Bayadh Airport,DZ,EBH,1.0925,33.72166667,Algeria
small_airport,In Guezzam Airport,DZ,INF,5.75,19.56699944,Algeria
small_airport,Bordj Badji Mokhtar Airport,DZ,BMW,0.923888981,21.375,Algeria
medium_airport,Touat Cheikh Sidi Mohamed Belkebir Airport,DZ,AZR,-0.186414003,27.83760071,Algeria
medium_airport,Biskra Airport,DZ,BSK,5.738230228,34.79330063,Algeria
medium_airport,El Golea Airport,DZ,ELG,2.859590054,30.57130051,Algeria
medium_airport,Noumérat - Moufdi Zakaria Airport,DZ,GHA,3.79411006,32.38410187,Algeria
medium_airport,Oued Irara Airport,DZ,HME,6.140439987,31.67300034,Algeria
medium_airport,In Salah Airport,DZ,INZ,2.512020111,27.25099945,Algeria
medium_airport,Touggourt Sidi Madhi Airport,DZ,TGR,6.088669777,33.06779861,Algeria
medium_airport,Laghouat Airport,DZ,LOO,2.928339958,33.76440048,Algeria
medium_airport,Guemar Airport,DZ,ELU,6.776790142,33.51139832,Algeria
medium_airport,Timimoun Airport,DZ,TMX,0.276033014,29.2371006,Algeria
medium_airport,Ain el Beida Airport,DZ,OGX,5.412779808,31.91720009,Algeria
medium_airport,In Aménas Airport,DZ,IAM,9.64291,28.0515,Algeria
medium_airport,Cadjehoun Airport,BJ,COO,2.384350061,6.357230186,Benin
small_airport,Djougou Airport,BJ,DJA,1.637777778,9.692083333,Benin
small_airport,Kandi Airport,BJ,KDC,2.940381,11.14479,Benin
small_airport,Natitingou Airport,BJ,NAE,1.360507,10.376965,Benin
small_airport,Parakou Airport,BJ,PKO,2.609679937,9.357689857,Benin
small_airport,Savé Airport,BJ,SVF,2.464580059,8.018170357,Benin
medium_airport,Baicheng Chang'an Airport,CN,DBC,123.019722,45.505278,China
seaplane_base,Dutch Bay SPB,LK,DBK,79.756,8.273,Sri Lanka
small_airport,Debepare Airport,PG,DBP,141.9055556,-6.308611111,Papua New Guinea
seaplane_base,Dambulu Oya Tank Seaplane Base,LK,DBU,80.6304,7.8604,Sri Lanka
seaplane_base,Dubai Creek SPB,AE,DCG,55.33138889,25.24222222,United Arab Emirates
small_airport,Dahl Creek Airport,US,DCK,-156.9049988,66.94329834,United States
closed,Decatur HI-Way Airfield,US,DCR,-84.862464,40.837548,United States
small_airport,Dodoima Airport,PG,DDM,147.8094444,-8.177361111,Papua New Guinea
closed,Heidelberg Army Helicopter Base,DE,HDB,8.651935,49.392397,Germany
closed,Böblingen Flugfeld,DE,PHM,8.996193,48.689544,Germany
closed,Böblingen Flugfeld,DE,PHM,8.996193,48.689544,Germany
small_airport,Derim Airport,PG,DER,147.1072222,-6.144722222,Papua New Guinea
small_airport,Nop Goliat Airport,ID,DEX,139.482006,-4.8557,Indonesia
small_airport,Kaya Airport,BF,XKY,-1.100000024,13.06700039,Burkina Faso
small_airport,Ouahigouya Airport,BF,OUG,-2.417000055,13.56700039,Burkina Faso
small_airport,Djibo Airport,BF,XDJ,-1.633000016,14.10000038,Burkina Faso
small_airport,Leo Airport,BF,XLU,-2.099999905,11.10000038,Burkina Faso
small_airport,Po Airport,BF,PUP,-1.149999976,11.14999962,Burkina Faso
small_airport,Boulsa Airport,BF,XBO,-0.566999972,12.64999962,Burkina Faso
small_airport,Bogande Airport,BF,XBG,-0.166999996,12.9829998,Burkina Faso
small_airport,Diapaga Airport,BF,DIP,1.784631,12.060324,Burkina Faso
small_airport,Dori Airport,BF,DOR,-0.033,14.03299999,Burkina Faso
small_airport,Fada N'gourma Airport,BF,FNG,0.349999994,12.03299999,Burkina Faso
small_airport,Gorom-Gorom Airport,BF,XGG,-0.232999995,14.44999981,Burkina Faso
small_airport,Kantchari Airport,BF,XKA,1.5,12.46700001,Burkina Faso
small_airport,Tambao Airport,BF,TMQ,0.050000001,14.80000019,Burkina Faso
small_airport,Pama Airport,BF,XPA,0.699999988,11.25,Burkina Faso
small_airport,Arly Airport,BF,ARL,1.48300004,11.59700012,Burkina Faso
small_airport,Sebba Airport,BF,XSE,0.51700002,13.44999981,Burkina Faso
small_airport,Tenkodogo Airport,BF,TEG,-0.367000014,11.80000019,Burkina Faso
small_airport,Zabré Airport,BF,XZA,-0.616999984,11.16699982,Burkina Faso
large_airport,Ouagadougou Airport,BF,OUA,-1.51242,12.3532,Burkina Faso
small_airport,Banfora Airport,BF,BNR,-4.717000008,10.68299961,Burkina Faso
small_airport,Dedougou Airport,BF,DGU,-3.49000001,12.45899963,Burkina Faso
small_airport,Gaoua Airport,BF,XGA,-3.163454,10.384059,Burkina Faso
small_airport,Nouna Airport,BF,XNU,-3.867000103,12.75,Burkina Faso
medium_airport,Bobo Dioulasso Airport,BF,BOY,-4.33096981,11.16009998,Burkina Faso
small_airport,Tougan Airport,BF,TUQ,-3.066999912,13.06700039,Burkina Faso
small_airport,Diebougou Airport,BF,XDE,-3.25,10.94999981,Burkina Faso
small_airport,Aribinda Airport,BF,XAR,-0.883000016,14.21700001,Burkina Faso
large_airport,Kotoka International Airport,GH,ACC,-0.166786,5.6051898,Ghana
closed,Fishermans Airfield,PG,DGG,147.0505,-9.5128,Papua New Guinea
medium_airport,Tamale Airport,GH,TML,-0.863214016,9.557189941,Ghana
seaplane_base,Dandugama Seaplane Base,LK,DGM,79.8721,7.1079,Sri Lanka
medium_airport,Kumasi Airport,GH,KMS,-1.590819955,6.714560032,Ghana
medium_airport,Sunyani Airport,GH,NYI,-2.328759909,7.361830235,Ghana
medium_airport,Takoradi Airport,GH,TKD,-1.774760008,4.89605999,Ghana
seaplane_base,Deer Harbor SPB,US,DHB,-123.0027778,48.61666667,United States
small_airport,Dalnegorsk Airport,RU,DHG,135.490005,44.558748,Russian Federation
small_airport,Aboisso Airport,CI,ABO,-3.234722,5.461944,Côte d'Ivoire
medium_airport,Port Bouet Airport,CI,ABJ,-3.926290035,5.261390209,Côte d'Ivoire
small_airport,Abengourou Airport,CI,OGO,-3.470279932,6.715559959,Côte d'Ivoire
small_airport,Boundiali Airport,CI,BXI,-6.467000008,9.532999992,Côte d'Ivoire
medium_airport,Bouaké Airport,CI,BYK,-5.07366991,7.738800049,Côte d'Ivoire
small_airport,Bouna Airport,CI,BQO,-3.025279999,9.277500153,Côte d'Ivoire
small_airport,Soko Airport,CI,BDK,-2.761940002,8.017219543,Côte d'Ivoire
small_airport,Dimbokro Airport,CI,DIM,-4.64056015,6.651669979,Côte d'Ivoire
medium_airport,Daloa Airport,CI,DJO,-6.473189831,6.792809963,Côte d'Ivoire
small_airport,Ferkessedougou Airport,CI,FEK,-5.1833333,9.6,Côte d'Ivoire
small_airport,Gagnoa Airport,CI,GGN,-5.949999809,6.132999897,Côte d'Ivoire
small_airport,Guiglo Airport,CI,GGO,-7.526847,6.534711,Côte d'Ivoire
small_airport,Nero-Mer Airport,CI,BBV,-6.923961639,4.643413067,Côte d'Ivoire
medium_airport,Korhogo Airport,CI,HGO,-5.556660175,9.387180328,Côte d'Ivoire
medium_airport,Man Airport,CI,MJC,-7.587359905,7.272069931,Côte d'Ivoire
small_airport,Odienne Airport,CI,KEO,-7.566999912,9.5,Côte d'Ivoire
small_airport,Ouango Fitini Airport,CI,OFI,-4.050000191,9.600000381,Côte d'Ivoire
small_airport,Seguela Airport,CI,SEO,-6.710830212,7.968329906,Côte d'Ivoire
medium_airport,San Pedro Airport,CI,SPY,-6.660820007,4.746719837,Côte d'Ivoire
small_airport,Sassandra Airport,CI,ZSS,-6.132780075,4.928329945,Côte d'Ivoire
small_airport,Tabou Airport,CI,TXU,-7.362728119,4.437809467,Côte d'Ivoire
small_airport,Mahana Airport,CI,TOZ,-7.674,8.2934,Côte d'Ivoire
seaplane_base,Mawella Lagoon Seaplane Base,LK,DIW,80.733129,5.990192,Sri Lanka
medium_airport,Yamoussoukro Airport,CI,ASK,-5.365580082,6.903170109,Côte d'Ivoire
small_airport,Dalnerechensk Airport,RU,DLR,133.7363,45.8783,Russian Federation
small_airport,Katsina Airport,NG,DKA,7.660449982,13.0078001,Nigeria
large_airport,Nnamdi Azikiwe International Airport,NG,ABV,7.263169765,9.006790161,Nigeria
large_airport,Akwa Ibom International Airport,NG,QUO,8.093,4.8725,Nigeria
medium_airport,Akure Airport,NG,AKR,5.301010132,7.246739864,Nigeria
medium_airport,Asaba International Airport,NG,ABB,6.665278,6.204167,Nigeria
medium_airport,Sir Abubakar Tafawa Balewa International Airport,NG,BCU,9.744,10.482833,Nigeria
medium_airport,Benin Airport,NG,BNI,5.599500179,6.316979885,Nigeria
medium_airport,Margaret Ekpo International Airport,NG,CBQ,8.347200394,4.976019859,Nigeria
medium_airport,Akanu Ibiam International Airport,NG,ENU,7.56196022,6.474269867,Nigeria
medium_airport,Ibadan Airport,NG,IBA,3.978329897,7.362460136,Nigeria
medium_airport,Ilorin International Airport,NG,ILR,4.493919849,8.440210342,Nigeria
medium_airport,Sam Mbakwe International Airport,NG,QOW,7.206029892,5.427060127,Nigeria
medium_airport,Yakubu Gowon Airport,NG,JOS,8.869050026,9.639829636,Nigeria
medium_airport,Kaduna Airport,NG,KAD,7.320109844,10.6960001,Nigeria
large_airport,Mallam Aminu International Airport,NG,KAN,8.52462,12.0476,Nigeria
medium_airport,Maiduguri International Airport,NG,MIU,13.08090019,11.85529995,Nigeria
medium_airport,Makurdi Airport,NG,MDI,8.61394,7.70388,Nigeria
large_airport,Murtala Muhammed International Airport,NG,LOS,3.321160078,6.577370167,Nigeria
medium_airport,Minna Airport,NG,MXJ,6.462259769,9.652170181,Nigeria
medium_airport,Port Harcourt International Airport,NG,PHC,6.949590206,5.015490055,Nigeria
medium_airport,Sadiq Abubakar III International Airport,NG,SKO,5.207190037,12.91629982,Nigeria
medium_airport,Yola Airport,NG,YOL,12.43039989,9.25755024,Nigeria
medium_airport,Zaria Airport,NG,ZAR,7.68581,11.1302,Nigeria
small_airport,Dorobisoro Airport,PG,DOO,147.920907,-9.461855,Papua New Guinea
closed,Dios Airport,PG,DOS,154.9616,-5.5609,Papua New Guinea
closed,Deer Park Airport,US,DPK,-73.31,40.76,United States
small_airport,Deputatskiy Airport,RU,DPT,139.890012,69.392503,Russian Federation
closed,Dumpu Airport,PG,DPU,145.705,-5.858,Papua New Guinea
small_airport,Saertu Airport,CN,DQA,125.1405556,46.74638889,China
medium_airport,Maradi Airport,NE,MFQ,7.126749992,13.50249958,Niger
large_airport,Diori Hamani International Airport,NE,NIM,2.18361,13.4815,Niger
medium_airport,Tahoua Airport,NE,THZ,5.265359879,14.8757,Niger
medium_airport,Mano Dayak International Airport,NE,AJY,8.000109673,16.9659996,Niger
small_airport,Arlit Airport,NE,RLT,7.365950108,18.79039955,Niger
medium_airport,Zinder Airport,NE,ZND,8.98375988,13.77900028,Niger
small_airport,Dilasag Airport,PH,DSG,122.2068056,16.44583333,Philippines
medium_airport,Tabarka 7 Novembre Airport,TN,TBJ,8.876939774,36.97999954,Tunisia
medium_airport,Monastir Habib Bourguiba International Airport,TN,MIR,10.75469971,35.7580986,Tunisia
large_airport,Tunis Carthage International Airport,TN,TUN,10.22719955,36.85100174,Tunisia
medium_airport,Gafsa Ksar International Airport,TN,GAF,8.822500229,34.42200089,Tunisia
medium_airport,Gabès Matmata International Airport,TN,GAE,10.10330009,33.87689972,Tunisia
medium_airport,Djerba Zarzis International Airport,TN,DJE,10.7755003,33.875,Tunisia
medium_airport,El Borma Airport,TN,EBM,9.254619598,31.70429993,Tunisia
medium_airport,Sfax Thyna International Airport,TN,SFA,10.69099998,34.7179985,Tunisia
medium_airport,Tozeur Nefta International Airport,TN,TOE,8.110560417,33.93970108,Tunisia
small_airport,Andavadoaka Airport,MG,DVD,43.259573,-22.06608,Madagascar
seaplane_base,Diyawanna Oya Seaplane Base,LK,DWO,79.909,6.906585,Sri Lanka
small_airport,Dywer Airbase,AF,DWR,64,31,Afghanistan
closed,Lake Buena Vista STOLport,US,DWS,-81.57127778,28.39944444,United States
medium_airport,Niamtougou International Airport,TG,LRL,1.091249943,9.76733017,Togo
medium_airport,Lomé-Tokoin Airport,TG,LFW,1.254510045,6.165609837,Togo
small_airport,Elenak Airport,MH,EAL,166.8477778,9.319305556,Marshall Islands
medium_airport,Antwerp International Airport (Deurne),BE,ANR,4.460279942,51.18939972,Belgium
large_airport,Brussels Airport,BE,BRU,4.48443985,50.90140152,Belgium
large_airport,Brussels South Charleroi Airport,BE,CRL,4.45382,50.459202,Belgium
medium_airport,Wevelgem Airport,BE,KJK,3.20472002,50.81719971,Belgium
large_airport,Liège Airport,BE,LGG,5.443220139,50.63740158,Belgium
small_airport,Ebon Airport,MH,EBO,168.752,4.5982,Marshall Islands
medium_airport,Ostend-Bruges International Airport,BE,OST,2.862220049,51.19889832,Belgium
small_airport,Zoersel (Oostmalle) Airfield,BE,OBL,4.75333,51.264702,Belgium
small_airport,Méndez Airport,EC,MZD,-78.3167038,-2.733330011,Ecuador
seaplane_base,Edna Bay Seaplane Base,US,EDA,-133.661012,55.949653,United States
medium_airport,Altenburg-Nobitz Airport,DE,AOC,12.506389,50.981945,Germany
medium_airport,Heringsdorf Airport,DE,HDF,14.15229988,53.87870026,Germany
small_airport,Riesa-Göhlis Airport,DE,IES,13.35611057,51.29360962,Germany
small_airport,Rechlin-Lärz Airport,DE,REB,12.75222206,53.30638886,Germany
small_airport,Cochstedt Airport,DE,CSO,11.42029953,51.85639954,Germany
small_airport,Barth Airport,DE,BBH,12.710515,54.338253,Germany
medium_airport,"Magdeburg ""City"" Airport",DE,ZMG,11.626389,52.073612,Germany
medium_airport,Neubrandenburg Airport,DE,FNB,13.306,53.6022,Germany
closed,Cottbus-Drewitz Airport,DE,CBU,14.531944,51.889442,Germany
small_airport,Flugplatz Güttin / Rügen,DE,GTI,13.325556,54.383331,Germany
small_airport,Köthen Airport,DE,KOQ,11.95277786,51.7211113,Germany
small_airport,Peenemünde Airport,DE,PEF,13.77444363,54.15777969,Germany
large_airport,Berlin-Schönefeld Airport,DE,SXF,13.5225,52.380001,Germany
large_airport,Dresden Airport,DE,DRS,13.76720047,51.13280106,Germany
medium_airport,Erfurt Airport,DE,ERF,10.95810032,50.97980118,Germany
large_airport,Frankfurt am Main Airport,DE,FRA,8.570556,50.033333,Germany
large_airport,Münster Osnabrück Airport,DE,FMO,7.684830189,52.13460159,Germany
large_airport,Hamburg Airport,DE,HAM,9.988229752,53.63040161,Germany
closed,Berlin Tempelhof International Airport,DE,THF,13.4039,52.473,Germany
large_airport,Cologne Bonn Airport,DE,CGN,7.142739773,50.86589813,Germany
large_airport,Düsseldorf Airport,DE,DUS,6.76678,51.289501,Germany
large_airport,Munich Airport,DE,MUC,11.7861,48.353802,Germany
large_airport,Nuremberg Airport,DE,NUE,11.078056,49.498699,Germany
large_airport,Leipzig/Halle Airport,DE,LEJ,12.236389,51.423889,Germany
medium_airport,Saarbrücken Airport,DE,SCN,7.109509945,49.21459961,Germany
large_airport,Stuttgart Airport,DE,STR,9.221960068,48.68989944,Germany
large_airport,Berlin-Tegel Airport,DE,TXL,13.2877,52.5597,Germany
large_airport,Hannover Airport,DE,HAJ,9.685079575,52.46110153,Germany
large_airport,Bremen Airport,DE,BRE,8.786669731,53.04750061,Germany
medium_airport,Frankfurt-Hahn Airport,DE,HHN,7.26389,49.9487,Germany
medium_airport,Mannheim-City Airport,DE,MHG,8.514167,49.473057,Germany
medium_airport,Eisenach-Kindel Airport,DE,EIB,10.47973,50.991604,Germany
medium_airport,Siegerland Airport,DE,SGE,8.082969666,50.70769882,Germany
medium_airport,Hamburg-Finkenwerder Airport,DE,XFW,9.83555603,53.53527832,Germany
medium_airport,Kiel-Holtenau Airport,DE,KEL,10.14527798,54.37944412,Germany
medium_airport,Lübeck Blankensee Airport,DE,LBC,10.71920013,53.80540085,Germany
small_airport,Neumünster Airport,DE,EUM,9.941389084,54.07944489,Germany
medium_airport,Memmingen Allgau Airport,DE,FMM,10.23950005,47.98880005,Germany
small_airport,Aachen-Merzbrück Airport,DE,AAH,6.186389,50.823055,Germany
small_airport,Bonn-Hangelar Airport,DE,BNJ,7.163332939,50.76889038,Germany
small_airport,Essen Mulheim Airport,DE,ESS,6.937329769,51.40230179,Germany
small_airport,Bielefeld Airport,DE,BFE,8.544444,51.964722,Germany
medium_airport,Mönchengladbach Airport,DE,MGL,6.504444,51.230278,Germany
medium_airport,Paderborn Lippstadt Airport,DE,PAD,8.616319656,51.61410141,Germany
medium_airport,Weeze Airport,DE,NRN,6.142169952,51.60240173,Germany
large_airport,Dortmund Airport,DE,DTM,7.612239838,51.5182991,Germany
medium_airport,Augsburg Airport,DE,AGB,10.931667,48.425278,Germany
medium_airport,Oberpfaffenhofen Airport,DE,OBF,11.2831,48.081402,Germany
small_airport,Straubing Airport,DE,RBM,12.51666737,48.90083313,Germany
medium_airport,Friedrichshafen Airport,DE,FDH,9.511489868,47.67129898,Germany
medium_airport,Schwerin Parchim Airport,DE,SZW,11.7834,53.426998,Germany
medium_airport,Bayreuth Airport,DE,BYU,11.64,49.985001,Germany
small_airport,Burg Feuerstein Airport,DE,URD,11.13361073,49.79416656,Germany
small_airport,Giebelstadt Airport,DE,GHF,9.966388702,49.64805603,Germany
medium_airport,Hof-Plauen Airport,DE,HOQ,11.85638905,50.28861237,Germany
small_airport,Bitburg Airport,DE,BBJ,6.565,49.945278,Germany
small_airport,Zweibrücken Airport,DE,ZQW,7.40056,49.2094,Germany
large_airport,Karlsruhe Baden-Baden Airport,DE,FKB,8.080499649,48.77939987,Germany
medium_airport,Donaueschingen-Villingen Airport,DE,ZQL,8.522221565,47.97333145,Germany
medium_airport,Lahr Airport,DE,LHA,7.827720165,48.36930084,Germany
medium_airport,Braunschweig-Wolfsburg Airport,DE,BWE,10.5561,52.319199,Germany
medium_airport,Kassel-Calden Airport,DE,KSF,9.384967,51.417273,Germany
closed,Bremerhaven Airport,DE,BRV,8.572778,53.506943,Germany
closed,Lemwerder Airport,DE,XLW,8.62444,53.144699,Germany
small_airport,Emden Airport,DE,EME,7.2275,53.391109,Germany
small_airport,Wangerooge Airport,DE,AGE,7.913888931,53.78277969,Germany
small_airport,Wilhelmshaven-Mariensiel Airport,DE,WVN,8.052222252,53.50222015,Germany
small_airport,Juist Airport,DE,JUI,7.055832863,53.68111038,Germany
small_airport,Langeoog Airport,DE,LGO,7.497777939,53.74250031,Germany
small_airport,Borkum Airport,DE,BMK,6.709167,53.59639,Germany
small_airport,Norden-Norddeich Airport,DE,NOD,7.190278053,53.63305664,Germany
small_airport,Varrelbusch Airport,DE,VAC,8.040556,52.908333,Germany
small_airport,Norderney Airport,DE,NRD,7.23,53.706944,Germany
small_airport,Baltrum Airport,DE,BMR,7.373332977,53.72472382,Germany
small_airport,Heide-Büsum Airport,DE,HEI,8.901666641,54.15333176,Germany
small_airport,Flensburg-Schäferhaus Airport,DE,FLF,9.378889084,54.7733345,Germany
small_airport,Helgoland-Düne Airport,DE,HGL,7.915832996,54.18527985,Germany
small_airport,Husum-Schwesing Airport,DE,QHU,9.138333321,54.50999832,Germany
small_airport,St. Peter-Ording Airport,DE,PSH,8.686944008,54.30888748,Germany
medium_airport,Westerland Sylt Airport,DE,GWT,8.340470314,54.91320038,Germany
small_airport,Wyk auf Föhr Airport,DE,OHR,8.52833271,54.68444443,Germany
medium_airport,Kärdla Airport,EE,KDL,22.83069992,58.99079895,Estonia
medium_airport,Kuressaare Airport,EE,URE,22.5095005,58.22990036,Estonia
medium_airport,Pärnu Airport,EE,EPU,24.4727993,58.41899872,Estonia
large_airport,Lennart Meri Tallinn Airport,EE,TLL,24.83279991,59.41329956,Estonia
medium_airport,Tartu Airport,EE,TAY,26.69039917,58.30749893,Estonia
medium_airport,Enontekio Airport,FI,ENF,23.42429924,68.36260223,Finland
small_airport,Efogi Airport,PG,EFG,147.6598056,-9.153805556,Papua New Guinea
